id,latitude,longitude,X1,ID,airportID,airport,Label,country,IATA,ICAO,latitude.y,longitude.y,altitude,timezone,DST,TZ,type,source
AAA,-17.3542,-145.4961,1,AAA,1973,Anaa Airport,Anaa,French Polynesia,AAA,NTGA,-17.35260009765625,-145.50999450683594,10,-10,U,Pacific/Tahiti,airport,OurAirports
AAC,31.0733,33.8358,2,AAC,5690,El Arish International Airport,El Arish,Egypt,AAC,HEAR,31.073299408,33.8358001709,121,2,U,Africa/Cairo,airport,OurAirports
AAE,36.8222,7.8094,3,AAE,220,Rabah Bitat Airport,Annaba,Algeria,AAE,DABB,36.822201,7.809174,16,1,N,Africa/Algiers,airport,OurAirports
AAF,29.7275,-85.0274,4,AAF,8252,Apalachicola Regional Airport,Apalachicola,United States,AAF,KAAF,29.72750092,-85.02749634,20,-5,A,America/New_York,airport,OurAirports
AAG,-24.1036,-49.7900,5,AAG,NA,NA,NA,NA,NA,NA,NA,NA,NA,NA,NA,NA,NA,NA
AAL,57.0928,9.8492,6,AAL,628,Aalborg Airport,Aalborg,Denmark,AAL,EKYT,57.0927589138,9.84924316406,10,1,E,Europe/Copenhagen,airport,OurAirports
AAM,-24.8181,31.5446,7,AAM,5605,Malamala Airport,Malamala,South Africa,AAM,FAMD,-24.818099975585938,31.544599533081055,1124,2,U,Africa/Johannesburg,airport,OurAirports
AAN,24.2617,55.6092,8,AAN,5937,Al Ain International Airport,Al Ain,United Arab Emirates,AAN,OMAL,24.261699676513672,55.60919952392578,869,4,U,Asia/Dubai,airport,OurAirports
AAQ,45.0017,37.3483,9,AAQ,4353,Anapa Vityazevo Airport,Anapa,Russia,AAQ,URKA,45.002101898193,37.347301483154,174,3,N,Europe/Moscow,airport,OurAirports
AAR,56.3,10.6190,10,AAR,607,Aarhus Airport,Aarhus,Denmark,AAR,EKAH,56.2999992371,10.619000434899998,82,1,E,Europe/Copenhagen,airport,OurAirports
AAT,47.72,88.1500,11,AAT,6946,Altay Air Base,Altay,China,AAT,ZWAT,47.7498855591,88.08580780030002,2460,8,U,Asia/Shanghai,airport,OurAirports
AAX,-19.5603,-46.9653,12,AAX,7395,Romeu Zema Airport,Araxa,Brazil,AAX,SBAX,-19.563199996948,-46.960399627686,3276,-3,S,America/Sao_Paulo,airport,OurAirports
AAY,16.1917,52.1750,13,AAY,3979,Al Ghaidah International Airport,Al Ghaidah Intl,Yemen,AAY,OYGD,16.191699981689453,52.17499923706055,134,3,U,Asia/Aden,airport,OurAirports
ABA,53.7417,91.3850,14,ABA,2955,Abakan Airport,Abakan,Russia,ABA,UNAA,53.7400016784668,91.38500213623047,831,7,N,Asia/Krasnoyarsk,airport,OurAirports
ABB,6.1978,6.7285,15,ABB,9825,Asaba International Airport,Asaba,Nigeria,ABB,DNAS,6.204167,6.665278,305,1,N,Africa/Lagos,airport,OurAirports
ABC,38.948,-1.8630,16,ABC,1211,Albacete-Los Llanos Airport,Albacete,Spain,ABC,LEAB,38.9485015869,-1.8635200262099998,2302,1,E,Europe/Madrid,airport,OurAirports
ABD,30.3667,48.2333,17,ABD,2097,Abadan Airport,Abadan,Iran,ABD,OIAA,30.371099472,48.2282981873,10,3.5,E,Asia/Tehran,airport,OurAirports
ABE,40.6521,-75.4408,18,ABE,4355,Lehigh Valley International Airport,Allentown,United States,ABE,KABE,40.652099609375,-75.44080352783203,393,-5,A,America/New_York,airport,OurAirports
ABH,-23.6583,146.5917,19,ABH,12011,Alpha Airport,Alpha,Australia,ABH,YAPH,-23.646099,146.584,1255,NA,\N,\N,airport,OurAirports
ABI,32.4113,-99.6819,20,ABI,3718,Abilene Regional Airport,Abilene,United States,ABI,KABI,32.4113006592,-99.68190002440001,1791,-6,A,America/Chicago,airport,OurAirports
ABJ,5.2544,-3.9286,21,ABJ,253,Port Bouet Airport,Abidjan,Cote d'Ivoire,ABJ,DIAP,5.261390209197998,-3.9262900352478027,21,0,N,Africa/Abidjan,airport,OurAirports
ABK,6.734,44.2530,22,ABK,5682,Kabri Dehar Airport,Kabri Dehar,Ethiopia,ABK,HAKD,6.734,44.252998,1800,3,U,Africa/Addis_Ababa,airport,OurAirports
ABL,67.1063,-157.8575,23,ABL,7177,Ambler Airport,Ambler,United States,ABL,PAFM,67.1063,-157.856989,334,-9,A,America/Anchorage,airport,OurAirports
ABM,-10.95,142.4600,24,ABM,3318,Northern Peninsula Airport,Amberley,Australia,ABM,YBAM,-10.9508,142.459,34,10,O,Australia/Brisbane,airport,OurAirports
ABQ,35.0402,-106.6092,25,ABQ,4019,Albuquerque International Sunport,Albuquerque,United States,ABQ,KABQ,35.040199,-106.609001,5355,-7,A,America/Denver,airport,OurAirports
ABR,45.449,-98.4218,26,ABR,5714,Aberdeen Regional Airport,Aberdeen,United States,ABR,KABR,45.449100494384766,-98.42179870605469,1302,-6,A,America/Chicago,airport,OurAirports
ABS,22.3758,31.6117,27,ABS,1127,Abu Simbel Airport,Abu Simbel,Egypt,ABS,HEBL,22.375999450699997,31.611700058,616,2,U,Africa/Cairo,airport,OurAirports
ABT,20.2961,41.6342,28,ABT,2061,Al Baha Airport,El-baha,Saudi Arabia,ABT,OEBA,20.2961006165,41.6343002319,5486,3,U,Asia/Riyadh,airport,OurAirports
ABV,9.0069,7.2631,29,ABV,260,Nnamdi Azikiwe International Airport,Abuja,Nigeria,ABV,DNAA,9.0067901611328125,7.263169765472412,1123,1,N,Africa/Lagos,airport,OurAirports
ABX,-36.0689,146.9564,30,ABX,3333,Albury Airport,Albury,Australia,ABX,YMAY,-36.06779861450195,146.95799255371094,539,10,O,Australia/Sydney,airport,OurAirports
ABY,31.5369,-84.1945,31,ABY,5715,Southwest Georgia Regional Airport,Albany,United States,ABY,KABY,31.535499572753906,-84.19450378417969,197,-5,A,America/New_York,airport,OurAirports
ABZ,57.2019,-2.1978,32,ABZ,532,Aberdeen Dyce Airport,Aberdeen,United Kingdom,ABZ,EGPD,57.201900482177734,-2.197779893875122,215,0,E,Europe/London,airport,OurAirports
ACA,16.7571,-99.7538,33,ACA,1783,General Juan N Alvarez International Airport,Acapulco,Mexico,ACA,MMAA,16.757099151611328,-99.753997802734375,16,-6,S,America/Mexico_City,airport,OurAirports
ACC,5.5964,-0.1700,34,ACC,248,Kotoka International Airport,Accra,Ghana,ACC,DGAA,5.605189800262451,-0.16678600013256073,205,0,N,Africa/Accra,airport,OurAirports
ACE,28.9455,-13.6052,35,ACE,1055,Lanzarote Airport,Arrecife,Spain,ACE,GCRR,28.945499,-13.6052,46,0,E,Atlantic/Canary,airport,OurAirports
ACH,47.485,9.5619,36,ACH,1679,St Gallen Altenrhein Airport,Altenrhein,Switzerland,ACH,LSZR,47.4850006104,9.560770034789998,1306,1,E,Europe/Zurich,airport,OurAirports
ACI,49.7061,-2.2147,37,ACI,497,Alderney Airport,Alderney,Guernsey,ACI,EGJA,49.706104,-2.21472,290,0,E,Europe/Guernsey,airport,OurAirports
ACK,41.2531,-70.0602,38,ACK,3517,Nantucket Memorial Airport,Nantucket,United States,ACK,KACK,41.25310135,-70.06020355,47,-5,A,America/New_York,airport,OurAirports
ACP,37.7333,46.4500,39,ACP,6746,Sahand Airport,Maragheh,Iran,ACP,OITM,37.347999572753906,46.127899169921875,4396,3.5,E,Asia/Tehran,airport,OurAirports
ACR,0.6007,-72.3980,40,ACR,6740,Araracuara Airport,Araracuara,Colombia,ACR,SKAC,-0.5833,-72.4083,1250,-5,U,America/Bogota,airport,OurAirports
ACT,31.6113,-97.2305,41,ACT,3700,Waco Regional Airport,Waco,United States,ACT,KACT,31.611299514770508,-97.230499267578125,516,-6,A,America/Chicago,airport,OurAirports
ACU,9.183,-78.0170,42,ACU,NA,NA,NA,NA,NA,NA,NA,NA,NA,NA,NA,NA,NA,NA
ACV,40.9781,-124.1086,43,ACV,4384,California Redwood Coast-Humboldt County Airport,Arcata CA,United States,ACV,KACV,40.978101,-124.109,221,-8,A,America/Los_Angeles,airport,OurAirports
ACX,25.05,104.9833,44,ACX,7506,Xingyi Airport,Xingyi,China,ACX,ZUYI,25.0863888889,104.959444444,4150,8,U,Asia/Shanghai,airport,OurAirports
ACY,39.4576,-74.5772,45,ACY,3524,Atlantic City International Airport,Atlantic City,United States,ACY,KACY,39.45759963989258,-74.57720184326172,75,-5,A,America/New_York,airport,OurAirports
ACZ,31.0983,61.5439,46,ACZ,2165,Zabol Airport,Zabol,Iran,ACZ,OIZB,31.09830093383789,61.54389953613281,1628,3.5,E,Asia/Tehran,airport,OurAirports
ADA,36.9825,35.2831,47,ADA,1685,Adana Airport,Adana,Turkey,ADA,LTAF,36.9822006226,35.280399322499996,65,3,E,Europe/Istanbul,airport,OurAirports
ADB,38.2892,27.1550,48,ADB,1706,Adnan Menderes International Airport,Izmir,Turkey,ADB,LTBJ,38.2924003601,27.156999588,412,3,E,Europe/Istanbul,airport,OurAirports
ADD,8.975,38.7994,49,ADD,1107,Addis Ababa Bole International Airport,Addis Ababa,Ethiopia,ADD,HAAB,8.97789001465,38.799301147499996,7630,3,U,Africa/Addis_Ababa,airport,OurAirports
ADE,12.8289,45.0297,50,ADE,3977,Aden International Airport,Aden,Yemen,ADE,OYAA,12.829500198364258,45.02880096435547,7,3,U,Asia/Aden,airport,OurAirports
ADF,37.7308,38.4689,51,ADF,5800,Adıyaman Airport,Adiyaman,Turkey,ADF,LTCP,37.7313995361,38.4688987732,2216,3,E,Europe/Istanbul,airport,OurAirports
ADH,58.6,125.4000,52,ADH,9377,Aldan Airport,Aldan,Russia,ADH,UEEA,58.60279846191406,125.40899658203125,2241,9,N,Asia/Yakutsk,airport,OurAirports
ADJ,31.9727,35.9916,53,ADJ,2171,Amman-Marka International Airport,Amman,Jordan,ADJ,OJAM,31.972700119018555,35.991600036621094,2555,2,E,Asia/Amman,airport,OurAirports
ADK,51.878,-176.6460,54,ADK,5959,Adak Airport,Adak Island,United States,ADK,PADK,51.87799835205078,-176.64599609375,18,-10,A,America/Adak,airport,OurAirports
ADL,-34.945,138.5300,55,ADL,3341,Adelaide International Airport,Adelaide,Australia,ADL,YPAD,-34.945,138.531006,20,9.5,O,Australia/Adelaide,airport,OurAirports
ADP,8.3,80.4767,56,ADP,3028,Ampara Airport,Galoya,Sri Lanka,ADP,VCCG,7.33776,81.62594,150,5.5,U,Asia/Colombo,airport,OurAirports
ADQ,57.75,-152.4939,57,ADQ,3531,Kodiak Airport,Kodiak,United States,ADQ,PADQ,57.75,-152.4940033,78,-9,A,America/Anchorage,airport,OurAirports
ADS,32.9697,-96.8386,58,ADS,7513,Addison Airport,Addison,United States,ADS,KADS,32.9686012268,-96.8364028931,644,-6,A,America/Chicago,airport,OurAirports
ADU,38.3267,48.4242,59,ADU,5935,Ardabil Airport,Ardabil,Iran,ADU,OITL,38.3256988525,48.4244003296,4315,3.5,E,Asia/Tehran,airport,OurAirports
ADW,38.8108,-76.8670,60,ADW,3552,Joint Base Andrews,Camp Springs,United States,ADW,KADW,38.810799,-76.866997,280,-5,A,America/New_York,airport,OurAirports
ADX,56.3733,-2.8683,61,ADX,543,RAF Leuchars,Leuchars,United Kingdom,ADX,EGQL,56.37289810180664,-2.8684399127960205,38,0,E,Europe/London,airport,OurAirports
ADZ,12.5836,-81.7108,62,ADZ,2749,Gustavo Rojas Pinilla International Airport,San Andres Island,Colombia,ADZ,SKSP,12.5836,-81.7112,19,-5,U,America/Bogota,airport,OurAirports
AEB,23.72,106.9600,63,AEB,8082,Baise Youjiang Airport,Baise,China,AEB,ZGBS,23.7206001282,106.959999084,490,8,N,Asia/Shanghai,airport,OurAirports
AEG,1.4001,99.4305,64,AEG,3277,Aek Godang Airport,Padang Sidempuan,Indonesia,AEG,WIME,1.4001,99.430496,922,7,N,Asia/Jakarta,airport,OurAirports
AEH,13.8472,20.8488,65,AEH,997,Abeche Airport,Abeche,Chad,AEH,FTTC,13.847000122070312,20.84429931640625,1788,1,N,Africa/Ndjamena,airport,OurAirports
AEO,16.7167,-9.6333,66,AEO,1089,Aioun el Atrouss Airport,Aioun El Atrouss,Mauritania,AEO,GQNA,16.711299896240234,-9.637880325317383,951,0,N,Africa/Nouakchott,airport,OurAirports
AEP,-34.5589,-58.4164,67,AEP,2442,Jorge Newbery Airpark,Buenos Aires,Argentina,AEP,SABE,-34.5592,-58.4156,18,-3,N,America/Buenos_Aires,airport,OurAirports
AER,43.445,39.9483,68,AER,2965,Sochi International Airport,Sochi,Russia,AER,URSS,43.449902,39.9566,89,3,N,Europe/Moscow,airport,OurAirports
AES,62.5625,6.1197,69,AES,630,Ålesund Airport,Alesund,Norway,AES,ENAL,62.5625,6.119699954986572,69,1,E,Europe/Oslo,airport,OurAirports
AET,66.5518,-152.6222,70,AET,6839,Allakaket Airport,Allakaket,United States,AET,PFAL,66.5518035889,-152.621994019,441,-9,A,America/Anchorage,airport,OurAirports
AEX,31.3274,-92.5486,71,AEX,3852,Alexandria International Airport,Alexandria,United States,AEX,KAEX,31.32740020751953,-92.54979705810547,89,-6,A,America/Chicago,airport,OurAirports
AEY,65.6586,-18.0722,72,AEY,11,Akureyri Airport,Akureyri,Iceland,AEY,BIAR,65.660003662109375,-18.07270050048828,6,0,N,Atlantic/Reykjavik,airport,OurAirports
AFA,-34.5883,-68.4033,73,AFA,2454,Suboficial Ay Santiago Germano Airport,San Rafael,Argentina,AFA,SAMR,-34.588299,-68.4039,2470,-3,N,America/Mendoza,airport,OurAirports
AFB,46.8433,6.9167,74,AFB,NA,NA,NA,NA,NA,NA,NA,NA,NA,NA,NA,NA,NA,NA
AFL,-9.8661,-56.1044,75,AFL,2524,Piloto Osvaldo Marques Dias Airport,Alta Floresta,Brazil,AFL,SBAT,-9.8663892746,-56.1049995422,948,-4,S,America/Campo_Grande,airport,OurAirports
AFS,41.6133,64.2328,76,AFS,6754,Sugraly Airport,Zarafshan,Uzbekistan,AFS,UTSN,41.61389923095703,64.23320007324219,1396,5,U,Asia/Samarkand,airport,OurAirports
AFT,-9.1911,160.9492,77,AFT,7615,Afutara Aerodrome,Afutara,Solomon Islands,AFT,AGAF,-9.19138888889,160.948611111,23,11,U,Pacific/Guadalcanal,airport,OurAirports
AFW,32.9876,-97.3188,78,AFW,8342,Fort Worth Alliance Airport,Fort Worth,United States,AFW,KAFW,32.9875984192,-97.31880187990001,722,-6,A,America/Chicago,airport,OurAirports
AFY,38.7339,30.5953,79,AFY,1687,Afyon Airport,Afyon,Turkey,AFY,LTAH,38.726398468,30.6011009216,3310,3,E,Europe/Istanbul,airport,OurAirports
AFZ,36.1681,57.5953,80,AFZ,5931,Sabzevar National Airport,Sabzevar,Iran,AFZ,OIMS,36.16809844970703,57.59519958496094,3010,3.5,E,Asia/Tehran,airport,OurAirports
AGA,30.325,-9.4131,81,AGA,1064,Al Massira Airport,Agadir,Morocco,AGA,GMAD,30.325000762939453,-9.413069725036621,250,0,N,Africa/Casablanca,airport,OurAirports
AGB,48.4252,10.9318,82,AGB,374,Augsburg Airport,Augsburg,Germany,AGB,EDMA,48.425278,10.931667,1516,1,E,Europe/Berlin,airport,OurAirports
AGC,40.3544,-79.9302,83,AGC,7495,Allegheny County Airport,Pittsburgh,United States,AGC,KAGC,40.354400634765625,-79.9301986694336,1252,-5,A,America/New_York,airport,OurAirports
AGF,44.1747,0.5906,84,AGF,1262,Agen-La Garenne Airport,Agen,France,AGF,LFBA,44.17470169067383,0.5905560255050659,204,1,E,Europe/Paris,airport,OurAirports
AGH,56.2911,12.8550,85,AGH,5597,Ängelholm-Helsingborg Airport,Ängelholm,Sweden,AGH,ESTA,56.29610061645508,12.847100257873535,68,1,E,Europe/Stockholm,airport,OurAirports
AGL,-9.333,149.1500,86,AGL,NA,NA,NA,NA,NA,NA,NA,NA,NA,NA,NA,NA,NA,NA
AGM,65.6122,-37.6183,87,AGM,NA,NA,NA,NA,NA,NA,NA,NA,NA,NA,NA,NA,NA,NA
AGN,57.5036,-134.5851,88,AGN,7135,Angoon Seaplane Base,Angoon,United States,AGN,PAGN,57.503601,-134.585007,0,-9,A,America/Anchorage,airport,OurAirports
AGP,36.675,-4.4992,89,AGP,1230,Málaga Airport,Malaga,Spain,AGP,LEMG,36.67490005493164,-4.499110221862793,53,1,E,Europe/Madrid,airport,OurAirports
AGQ,38.602,21.3512,90,AGQ,1445,Agrinion Air Base,Agrinion,Greece,AGQ,LGAG,38.602001,21.3512001,154,2,E,Europe/Athens,airport,OurAirports
AGR,27.15,77.9500,91,AGR,3079,Agra Airport,Agra,India,AGR,VIAG,27.155799865722656,77.96089935302734,551,5.5,N,Asia/Calcutta,airport,OurAirports
AGS,33.3367,-81.9645,92,AGS,3658,Augusta Regional At Bush Field,Bush Field,United States,AGS,KAGS,33.36989974975586,-81.9645004272461,144,-5,A,America/New_York,airport,OurAirports
AGT,-25.4558,-54.8437,93,AGT,4305,Guarani International Airport,Ciudad del Este,Paraguay,AGT,SGES,-25.454516,-54.842682,846,-4,S,America/Asuncion,airport,OurAirports
AGU,21.7047,-102.3175,94,AGU,1785,Jesús Terán Paredo International Airport,Aguascalientes,Mexico,AGU,MMAS,21.705601,-102.318001,6112,-6,S,America/Mexico_City,airport,OurAirports
AGV,9.55,-69.2333,95,AGV,2818,Oswaldo Guevara Mujica Airport,Acarigua,Venezuela,AGV,SVAC,9.553375244140625,-69.23786926269531,640,-4,U,America/Caracas,airport,OurAirports
AGX,10.8237,72.1760,96,AGX,3130,Agatti Airport,Agatti Island,India,AGX,VOAT,10.823699951171875,72.1760025024414,14,5.5,N,Asia/Calcutta,airport,OurAirports
AGZ,-29.2792,18.8175,97,AGZ,791,Aggeneys Airport,Aggeneys,South Africa,AGZ,FAAG,-29.28179931640625,18.813899993896484,2648,2,U,Africa/Johannesburg,airport,OurAirports
AHB,18.2404,42.6565,98,AHB,2059,Abha Regional Airport,Abha,Saudi Arabia,AHB,OEAB,18.240400314299997,42.65660095210001,6858,3,U,Asia/Riyadh,airport,OurAirports
AHE,-14.4278,-146.2550,99,AHE,5889,Ahe Airport,Ahe,French Polynesia,AHE,NTHE,-14.428099632263184,-146.2570037841797,11,-10,U,Pacific/Tahiti,airport,OurAirports
AHN,33.9486,-83.3263,100,AHN,5716,Athens Ben Epps Airport,Athens,United States,AHN,KAHN,33.94860076904297,-83.32630157470703,808,-5,A,America/New_York,airport,OurAirports
AHO,40.6322,8.2894,101,AHO,1517,Alghero-Fertilia Airport,Alghero,Italy,AHO,LIEA,40.632099,8.29077,87,1,E,Europe/Rome,airport,OurAirports
AHS,15.4722,-84.3522,102,AHS,5831,Ahuas Airport,Ahuas,Honduras,AHS,MHAH,15.4722,-84.352203,249,-6,U,America/Tegucigalpa,airport,OurAirports
AHU,35.1806,-3.8317,103,AHU,1078,Cherif Al Idrissi Airport,Al Hociema,Morocco,AHU,GMTA,35.177101135253906,-3.83951997756958,95,0,N,Africa/Casablanca,airport,OurAirports
AIA,42.0532,-102.8037,104,AIA,7067,Alliance Municipal Airport,Alliance,United States,AIA,KAIA,42.0531997681,-102.804000854,3931,-7,A,America/Denver,airport,OurAirports
AIC,7.1,171.2333,105,AIC,NA,NA,NA,NA,NA,NA,NA,NA,NA,NA,NA,NA,NA,NA
AID,40.1087,-85.6130,106,AID,13077,Anderson Municipal Darlington Field,ANDERSON,United States,AID,KAID,40.10860061649999,-85.6129989624,919,-4,A,\N,airport,OurAirports
AIF,-22.6394,-50.4525,107,AIF,NA,NA,NA,NA,NA,NA,NA,NA,NA,NA,NA,NA,NA,NA
AIM,10.2,169.9833,108,AIM,NA,NA,NA,NA,NA,NA,NA,NA,NA,NA,NA,NA,NA,NA
AIN,70.638,-159.9948,109,AIN,7220,Wainwright Airport,Wainwright,United States,AIN,PAWI,70.6380004883,-159.994995117,41,-9,A,America/Anchorage,airport,OurAirports
AIR,-10.25,-59.3833,110,AIR,11198,Aripuanã Airport,Aripuana,Brazil,AIR,SWRP,-10.188278,-59.457273,623,-4,S,\N,airport,OurAirports
AIT,-18.8309,-159.7642,111,AIT,1958,Aitutaki Airport,Aitutaki,Cook Islands,AIT,NCAI,-18.830900192260742,-159.76400756835938,14,-10,U,Pacific/Rarotonga,airport,OurAirports
AIU,-19.9678,-158.1192,112,AIU,5861,Enua Airport,Atiu Island,Cook Islands,AIU,NCAT,-19.96780014038086,-158.11900329589844,36,-10,U,Pacific/Rarotonga,airport,OurAirports
AJA,41.9239,8.8025,113,AJA,1324,Ajaccio-Napoléon Bonaparte Airport,Ajaccio,France,AJA,LFKJ,41.92359924316406,8.8029203414917,18,1,E,Europe/Paris,airport,OurAirports
AJF,29.7852,40.0996,114,AJF,5925,Al-Jawf Domestic Airport,Al-Jawf,Saudi Arabia,AJF,OESK,29.78510093688965,40.099998474121094,2261,3,U,Asia/Riyadh,airport,OurAirports
AJI,39.6627,43.0232,115,AJI,5799,Ağrı Airport,Agri,Turkey,AJI,LTCO,39.654541015625,43.025978088378906,5462,3,E,Europe/Istanbul,airport,OurAirports
AJL,23.7333,92.8000,116,AJL,3039,Lengpui Airport,Aizwal,India,AJL,VELP,23.840599060099997,92.6196975708,1398,5.5,N,Asia/Calcutta,airport,OurAirports
AJN,-12.1317,44.4303,117,AJN,914,Ouani Airport,Anjouan,Comoros,AJN,FMCV,-12.131699562072754,44.430301666259766,62,3,U,Indian/Comoro,airport,OurAirports
AJR,65.5903,19.2819,118,AJR,730,Arvidsjaur Airport,Arvidsjaur,Sweden,AJR,ESNX,65.590301513671875,19.28190040588379,1245,1,E,Europe/Stockholm,airport,OurAirports
AJU,-10.9853,-37.0733,119,AJU,2522,Santa Maria Airport,Aracaju,Brazil,AJU,SBAR,-10.984000206,-37.0703010559,23,-3,S,America/Fortaleza,airport,OurAirports
AJY,16.9622,7.9903,120,AJY,282,Mano Dayak International Airport,Agadez,Niger,AJY,DRZA,16.965999603271484,8.000109672546387,1657,1,N,Africa/Niamey,airport,OurAirports
AKA,32.7081,108.9314,121,AKA,6362,Ankang Wulipu Airport,Ankang,China,AKA,ZLAK,32.708099,108.931,860,8,U,Asia/Shanghai,airport,OurAirports
AKB,52.2203,-174.2063,122,AKB,7195,Atka Airport,Atka,United States,AKB,PAAK,52.22029877,-174.2059937,57,-10,A,America/Adak,airport,OurAirports
AKC,41.0375,-81.4669,123,AKC,3587,Akron Fulton International Airport,Akron,United States,AKC,KAKR,41.0374984741,-81.4669036865,1067,-5,A,America/New_York,airport,OurAirports
AKD,20.6978,77.0589,124,AKD,2995,Akola Airport,Akola,India,AKD,VAAK,20.698999,77.058601,999,5.5,N,Asia/Calcutta,airport,OurAirports
AKF,24.1767,23.3150,125,AKF,1153,Kufra Airport,Kufra,Libya,AKF,HLKF,24.178699493408203,23.31399917602539,1367,2,N,Africa/Tripoli,airport,OurAirports
AKH,35.2026,-81.1498,126,AKH,7037,Prince Sultan Air Base,Al Kharj,Saudi Arabia,AKH,OEPS,24.062700271606445,47.580501556396484,1651,3,N,Asia/Riyadh,airport,OurAirports
AKI,60.9029,-161.2306,127,AKI,7217,Akiak Airport,Akiak,United States,AKI,PFAK,60.9029006958,-161.231002808,30,-9,A,America/Anchorage,airport,OurAirports
AKJ,43.6707,142.4475,128,AKJ,2299,Asahikawa Airport,Asahikawa,Japan,AKJ,RJEC,43.670799255371094,142.44700622558594,721,9,U,Asia/Tokyo,airport,OurAirports
AKK,56.9387,-154.1826,129,AKK,7160,Akhiok Airport,Akhiok,United States,AKK,PAKH,56.9387016296,-154.182998657,44,-9,A,America/Anchorage,airport,OurAirports
AKL,-37.0081,174.7917,130,AKL,2006,Auckland International Airport,Auckland,New Zealand,AKL,NZAA,-37.008098602299995,174.792007446,23,12,Z,Pacific/Auckland,airport,OurAirports
AKN,58.6768,-156.6492,131,AKN,3794,King Salmon Airport,King Salmon,United States,AKN,PAKN,58.67679977,-156.6490021,73,-9,A,America/Anchorage,airport,OurAirports
AKP,68.1336,-151.7433,132,AKP,6712,Anaktuvuk Pass Airport,Anaktuvuk Pass,United States,AKP,PAKP,68.13359833,-151.7429962,2102,-9,A,America/Anchorage,airport,OurAirports
AKR,7.25,5.3042,133,AKR,261,Akure Airport,Akure,Nigeria,AKR,DNAK,7.246739864349365,5.3010101318359375,1100,1,N,Africa/Lagos,airport,OurAirports
AKS,-8.6978,160.6808,134,AKS,5405,Gwaunaru'u Airport,Auki,Solomon Islands,AKS,AGGA,-8.70257,160.682007,5,11,U,Pacific/Guadalcanal,airport,OurAirports
AKT,34.5903,32.9878,135,AKT,1199,RAF Akrotiri,Akrotiri,Cyprus,AKT,LCRA,34.590401,32.9879,76,0,E,Europe/London,airport,OurAirports
AKU,41.2625,80.2917,136,AKU,6404,Aksu Airport,Aksu,China,AKU,ZWAK,41.262501,80.291702,3816,8,U,Asia/Shanghai,airport,OurAirports
AKV,60.818600000000004,-78.1486,137,AKV,5506,Akulivik Airport,Akulivik,Canada,AKV,CYKO,60.818599700927734,-78.14859771728516,75,-5,A,America/Toronto,airport,OurAirports
AKX,50.2458,57.2067,138,AKX,2920,Aktobe Airport,Aktyubinsk,Kazakhstan,AKX,UATT,50.2458,57.206699,738,5,U,Asia/Oral,airport,OurAirports
AKY,20.1329,92.8760,139,AKY,3235,Sittwe Airport,Sittwe,Burma,AKY,VYSW,20.132699966430664,92.87259674072266,27,6.5,U,Asia/Rangoon,airport,OurAirports
ALA,43.3519,77.0406,140,ALA,2908,Almaty Airport,Alma-ata,Kazakhstan,ALA,UAAA,43.35210037231445,77.040496826171875,2234,6,U,Asia/Qyzylorda,airport,OurAirports
ALB,42.7483,-73.8017,141,ALB,3864,Albany International Airport,Albany,United States,ALB,KALB,42.74829864501953,-73.80169677734375,285,-5,A,America/New_York,airport,OurAirports
ALC,38.2822,-0.5582,142,ALC,1212,Alicante International Airport,Alicante,Spain,ALC,LEAL,38.28219985961914,-0.5581560134887695,142,1,E,Europe/Madrid,airport,OurAirports
ALF,69.9761,23.3717,143,ALF,632,Alta Airport,Alta,Norway,ALF,ENAT,69.976097106934,23.371700286865,9,1,E,Europe/Oslo,airport,OurAirports
ALG,36.6944,3.2169,144,ALG,210,Houari Boumediene Airport,Algier,Algeria,ALG,DAAG,36.691001892089844,3.215409994125366,82,1,N,Africa/Algiers,airport,OurAirports
ALH,-34.9433,117.8083,145,ALH,6235,Albany Airport,Albany,Australia,ALH,YABA,-34.94329833984375,117.80899810791016,233,8,O,Australia/Perth,airport,OurAirports
ALI,27.7417,-98.0267,146,ALI,3574,Alice International Airport,Alice,United States,ALI,KALI,27.740900039699998,-98.02690124510002,178,-6,A,America/Chicago,airport,OurAirports
ALJ,-28.5733,16.5350,147,ALJ,790,Alexander Bay Airport,Alexander Bay,South Africa,ALJ,FAAB,-28.575001,16.5333,98,2,U,Africa/Johannesburg,airport,OurAirports
ALL,44.0467,8.1264,148,ALL,1527,Villanova D'Albenga International Airport,Albenga,Italy,ALL,LIMG,44.050598,8.12743,148,1,E,Europe/Rome,airport,OurAirports
ALM,32.8399,-105.9906,149,ALM,5717,Alamogordo White Sands Regional Airport,Alamogordo,United States,ALM,KALM,32.8399009705,-105.990997314,4200,-7,A,America/Denver,airport,OurAirports
ALN,38.89,-90.0467,150,ALN,11814,St Louis Regional Airport,Alton/St Louis,United States,ALN,KALN,38.89030075069999,-90.0459976196,544,NA,\N,\N,airport,OurAirports
ALO,42.5572,-92.4033,151,ALO,5718,Waterloo Regional Airport,Waterloo,United States,ALO,KALO,42.557098388671875,-92.400299072265625,873,-6,A,America/Chicago,airport,OurAirports
ALP,36.1797,37.2261,152,ALP,2235,Aleppo International Airport,Aleppo,Syria,ALP,OSAP,36.18069839477539,37.22439956665039,1276,2,E,Asia/Damascus,airport,OurAirports
ALR,-45.2117,169.3733,153,ALR,2019,Alexandra Airport,Alexandra,New Zealand,ALR,NZLX,-45.211700439453125,169.3730010986328,752,12,Z,Pacific/Auckland,airport,OurAirports
ALS,37.4349,-105.8666,154,ALS,7073,San Luis Valley Regional Bergman Field,Alamosa,United States,ALS,KALS,37.434898,-105.866997,7539,-7,A,America/Denver,airport,OurAirports
ALW,46.0946,-118.2879,155,ALW,5719,Walla Walla Regional Airport,Walla Walla,United States,ALW,KALW,46.09489822,-118.288002,1194,-8,A,America/Los_Angeles,airport,OurAirports
ALY,31.1817,29.9464,156,ALY,1126,El Nouzha Airport,Alexandria,Egypt,ALY,HEAX,31.183900833129883,29.94890022277832,-6,2,U,Africa/Cairo,airport,OurAirports
ALZ,56.8958,-154.2458,157,ALZ,NA,NA,NA,NA,NA,NA,NA,NA,NA,NA,NA,NA,NA,NA
AMA,35.2194,-101.7059,158,AMA,3840,Rick Husband Amarillo International Airport,Amarillo,United States,AMA,KAMA,35.219398,-101.706001,3607,-6,A,America/Chicago,airport,OurAirports
AMD,23.0712,72.6264,159,AMD,2994,Sardar Vallabhbhai Patel International Airport,Ahmedabad,India,AMD,VAAH,23.0771999359,72.63469696039999,189,5.5,N,Asia/Calcutta,airport,OurAirports
AMH,6.0394,37.5905,160,AMH,1109,Arba Minch Airport,Arba Minch,Ethiopia,AMH,HAAM,6.0393900871276855,37.59049987792969,3901,3,U,Africa/Addis_Ababa,airport,OurAirports
AMI,-8.562,116.0994,161,AMI,3923,Selaparang Airport,Mataram,Indonesia,AMI,WADA,-8.560709953309999,116.095001221,52,8,N,Asia/Makassar,airport,OurAirports
AMJ,-16.1833,-40.6667,162,AMJ,NA,NA,NA,NA,NA,NA,NA,NA,NA,NA,NA,NA,NA,NA
AMM,31.7226,35.9932,163,AMM,2170,Queen Alia International Airport,Amman,Jordan,AMM,OJAI,31.7226009369,35.9931983948,2395,2,E,Asia/Amman,airport,OurAirports
AMQ,-3.707,128.0897,164,AMQ,3256,"Pattimura Airport, Ambon",Ambon,Indonesia,AMQ,WAPP,-3.7102599144,128.089004517,33,9,N,Asia/Jayapura,airport,OurAirports
AMS,52.3081,4.7642,165,AMS,580,Amsterdam Airport Schiphol,Amsterdam,Netherlands,AMS,EHAM,52.308601,4.76389,-11,1,E,Europe/Amsterdam,airport,OurAirports
AMV,69.7633,61.5633,166,AMV,6112,Amderma Airport,Amderma,Russia,AMV,ULDD,69.76329803466797,61.556400299072266,13,3,N,Europe/Moscow,airport,OurAirports
AMY,-17.683,45.6170,167,AMY,NA,NA,NA,NA,NA,NA,NA,NA,NA,NA,NA,NA,NA,NA
AMZ,-37.0297,174.9733,168,AMZ,2008,Ardmore Airport,Ardmore,New Zealand,AMZ,NZAR,-37.029701232910156,174.97300720214844,111,12,Z,Pacific/Auckland,airport,OurAirports
ANB,33.5881,-85.8581,169,ANB,3485,Anniston Regional Airport,Anniston,United States,ANB,KANB,33.5882,-85.8581,612,-6,A,America/Chicago,airport,OurAirports
ANC,61.1744,-149.9964,170,ANC,3774,Ted Stevens Anchorage International Airport,Anchorage,United States,ANC,PANC,61.174400329589844,-149.99600219726562,152,-9,A,America/Anchorage,airport,OurAirports
AND,34.495,-82.7097,171,AND,3466,Anderson Regional Airport,Andersen,United States,AND,KAND,34.4945983887,-82.70939636230001,782,-5,A,America/New_York,airport,OurAirports
ANE,47.5603,-0.3122,172,ANE,5783,Angers-Loire Airport,Angers/Marcé,France,ANE,LFJR,47.560299,-0.312222,194,1,E,Europe/Paris,airport,OurAirports
ANF,-23.4444,-70.4450,173,ANF,2651,Andrés Sabella Gálvez International Airport,Antofagasta,Chile,ANF,SCFA,-23.444501,-70.445099,455,-4,S,America/Santiago,airport,OurAirports
ANG,45.7294,0.2192,174,ANG,1277,Angoulême-Brie-Champniers Airport,Angouleme,France,ANG,LFBU,45.72919845581055,0.22145600616931915,436,1,E,Europe/Paris,airport,OurAirports
ANI,61.5816,-159.5430,175,ANI,5967,Aniak Airport,Aniak,United States,ANI,PANI,61.581600189208984,-159.54299926757812,88,-9,A,America/Anchorage,airport,OurAirports
ANJ,46.4792,-84.3684,176,ANJ,NA,NA,NA,NA,NA,NA,NA,NA,NA,NA,NA,NA,NA,NA
ANK,39.9575,32.6744,177,ANK,1683,Etimesgut Air Base,Ankara,Turkey,ANK,LTAD,39.949798584,32.6885986328,2653,3,E,Europe/Istanbul,airport,OurAirports
ANM,-14.9994,50.3202,178,ANM,927,Antsirabato Airport,Antalaha,Madagascar,ANM,FMNH,-14.99940013885498,50.3202018737793,20,3,U,Indian/Antananarivo,airport,OurAirports
ANN,55.0425,-131.5722,179,ANN,3477,Annette Island Airport,Annette Island,United States,ANN,PANT,55.04240036010742,-131.57200622558594,119,-9,A,America/Anchorage,airport,OurAirports
ANO,-16.1833,39.9333,180,ANO,NA,NA,NA,NA,NA,NA,NA,NA,NA,NA,NA,NA,NA,NA
ANR,51.1894,4.4603,181,ANR,299,Antwerp International Airport (Deurne),Antwerp,Belgium,ANR,EBAW,51.1893997192,4.46027994156,39,1,E,Europe/Brussels,airport,OurAirports
ANS,-13.7042,-73.3481,182,ANS,2787,Andahuaylas Airport,Andahuaylas,Peru,ANS,SPHY,-13.706399917602539,-73.35040283203125,11300,-5,U,America/Lima,airport,OurAirports
ANU,17.1367,-61.7928,183,ANU,2874,V.C. Bird International Airport,Antigua,Antigua and Barbuda,ANU,TAPA,17.1367,-61.792702,62,-4,U,America/Antigua,airport,OurAirports
ANV,62.6467,-160.1907,184,ANV,6713,Anvik Airport,Anvik,United States,ANV,PANV,62.646702,-160.190994,291,-9,A,America/Anchorage,airport,OurAirports
ANW,42.58,-99.9933,185,ANW,NA,NA,NA,NA,NA,NA,NA,NA,NA,NA,NA,NA,NA,NA
ANX,69.2925,16.1442,186,ANX,631,Andøya Airport,Andoya,Norway,ANX,ENAN,69.292503356934,16.144199371338,43,1,E,Europe/Oslo,airport,OurAirports
AOC,50.9818,12.5064,187,AOC,318,Altenburg-Nobitz Airport,Altenburg,Germany,AOC,EDAC,50.981945,12.506389,640,1,E,Europe/Berlin,airport,OurAirports
AOE,39.8117,30.5286,188,AOE,6780,Anadolu Airport,Eskissehir,Turkey,AOE,LTBY,39.809898,30.5194,2588,3,E,Europe/Istanbul,airport,OurAirports
AOG,41.1053,122.8539,189,AOG,9844,Anshan Air Base,Anshan,China,AOG,ZYAS,41.105301,122.853996,0,8,N,Asia/Shanghai,airport,OurAirports
AOI,43.6167,13.3603,190,AOI,4309,Ancona Falconara Airport,Ancona,Italy,AOI,LIPY,43.616299,13.3623,49,1,E,Europe/Rome,airport,OurAirports
AOJ,40.7347,140.6908,191,AOJ,2340,Aomori Airport,Aomori,Japan,AOJ,RJSA,40.73469924926758,140.6909942626953,664,9,U,Asia/Tokyo,airport,OurAirports
AOK,35.4167,27.1500,192,AOK,1459,Karpathos Airport,Karpathos,Greece,AOK,LGKP,35.4213981628418,27.145999908447266,66,2,E,Europe/Athens,airport,OurAirports
AOL,-29.6881,-57.1522,193,AOL,2472,Paso De Los Libres Airport,Paso De Los Libres,Argentina,AOL,SARL,-29.6894,-57.1521,230,-3,N,America/Cordoba,airport,OurAirports
AOO,40.2964,-78.3200,194,AOO,3694,Altoona Blair County Airport,Altoona,United States,AOO,KAOO,40.29639816,-78.31999969,1503,-5,A,America/New_York,airport,OurAirports
AOQ,72.8869,-55.5961,195,AOQ,NA,NA,NA,NA,NA,NA,NA,NA,NA,NA,NA,NA,NA,NA
AOR,6.1944,100.4008,196,AOR,3296,Sultan Abdul Halim Airport,Alor Setar,Malaysia,AOR,WMKA,6.189670085906982,100.39800262451172,15,8,N,Asia/Kuala_Lumpur,airport,OurAirports
AOS,57.4667,-153.8333,197,AOS,NA,NA,NA,NA,NA,NA,NA,NA,NA,NA,NA,NA,NA,NA
AOT,45.7386,7.3681,198,AOT,5791,Aosta Airport,Aosta,Italy,AOT,LIMW,45.738499,7.36872,1791,1,E,Europe/Rome,airport,OurAirports
AOU,14.8,106.8167,199,AOU,11291,Attopeu Airport,Attopeu,Laos,AOU,VLAP,14.814715357,106.821699142,344,7,N,\N,airport,OurAirports
AOX,46.0525,63.2492,200,AOX,NA,NA,NA,NA,NA,NA,NA,NA,NA,NA,NA,NA,NA,NA
APA,39.5701,-104.8493,201,APA,4222,Centennial Airport,Denver,United States,APA,KAPA,39.57009888,-104.848999,5885,-7,A,America/Denver,airport,OurAirports
APC,38.2131,-122.2806,202,APC,7658,Napa County Airport,Napa,United States,APC,KAPC,38.2132,-122.280998,35,-8,A,America/Los_Angeles,airport,OurAirports
APF,26.1526,-81.7753,203,APF,4012,Naples Municipal Airport,Naples,United States,APF,KAPF,26.1525993347,-81.7752990723,8,-5,A,America/New_York,airport,OurAirports
APG,39.4662,-76.1688,204,APG,3772,Phillips Army Air Field,Aberdeen,United States,APG,KAPG,39.466202,-76.1688,57,-5,A,America/New_York,airport,OurAirports
API,4.0761,-73.5627,205,API,11938,Gomez Nino Apiay Air Base,Apiay,Colombia,API,SKAP,4.07607,-73.5627,1207,NA,\N,\N,airport,OurAirports
APK,-15.5736,-146.4153,206,APK,5888,Apataki Airport,Apataki,French Polynesia,APK,NTGD,-15.5736,-146.414993,8,-10,U,Pacific/Tahiti,airport,OurAirports
APL,-15.1,39.2833,207,APL,984,Nampula Airport,Nampula,Mozambique,APL,FQNP,-15.105600357055664,39.28179931640625,1444,2,U,Africa/Maputo,airport,OurAirports
APN,45.0781,-83.5603,208,APN,5720,Alpena County Regional Airport,Alpena,United States,APN,KAPN,45.0780983,-83.56030273,690,-5,A,America/New_York,airport,OurAirports
APO,7.033,-77.2000,209,APO,2726,Antonio Roldan Betancourt Airport,Carepa,Colombia,APO,SKLC,7.81196,-76.7164,46,-5,U,America/Bogota,airport,OurAirports
APS,-16.3619,-48.9275,210,APS,NA,NA,NA,NA,NA,NA,NA,NA,NA,NA,NA,NA,NA,NA
APU,-23.6117,-51.3844,211,APU,NA,NA,NA,NA,NA,NA,NA,NA,NA,NA,NA,NA,NA,NA
APV,34.5753,-117.1862,212,APV,NA,NA,NA,NA,NA,NA,NA,NA,NA,NA,NA,NA,NA,NA
APW,-13.8297,-171.9972,213,APW,1969,Faleolo International Airport,Faleolo,Samoa,APW,NSFA,-13.829999923706055,-172.00799560546875,58,13,U,Pacific/Apia,airport,OurAirports
APX,-23.3625,-51.4792,214,APX,NA,NA,NA,NA,NA,NA,NA,NA,NA,NA,NA,NA,NA,NA
AQA,-21.8039,-48.1397,215,AQA,2521,Araraquara Airport,Araracuara,Brazil,AQA,SBAQ,-21.812000274699997,-48.1329994202,2334,-3,S,America/Sao_Paulo,airport,OurAirports
AQG,30.5822,117.0503,216,AQG,6427,Anqing Tianzhushan Airport,Anqing,China,AQG,ZSAQ,30.582199,117.050003,0,8,N,Asia/Shanghai,airport,OurAirports
AQI,28.3352,46.1249,217,AQI,2076,Al Qaisumah/Hafr Al Batin Airport,Hafr Al-batin,Saudi Arabia,AQI,OEPA,28.335199,46.125099,1174,3,U,Asia/Riyadh,airport,OurAirports
AQJ,29.6116,35.0181,218,AQJ,2172,Aqaba King Hussein International Airport,Aqaba,Jordan,AQJ,OJAQ,29.611600875854492,35.01810073852539,175,2,E,Asia/Amman,airport,OurAirports
AQP,-16.3403,-71.5728,219,AQP,2802,Rodríguez Ballón International Airport,Arequipa,Peru,AQP,SPQU,-16.3411006927,-71.5830993652,8405,-5,U,America/Lima,airport,OurAirports
ARA,30.0378,-91.8839,220,ARA,3471,Acadiana Regional Airport,Louisiana,United States,ARA,KARA,30.0378,-91.883904,24,-6,A,America/Chicago,airport,OurAirports
ARC,68.1147,-145.5794,221,ARC,6729,Arctic Village Airport,Arctic Village,United States,ARC,PARC,68.1147,-145.578995,2092,-9,A,America/Anchorage,airport,OurAirports
ARH,64.6,40.7183,222,ARH,4362,Talagi Airport,Arkhangelsk,Russia,ARH,ULAA,64.60030364990234,40.71670150756836,62,3,N,Europe/Moscow,airport,OurAirports
ARI,-18.3486,-70.3386,223,ARI,2641,Chacalluta Airport,Arica,Chile,ARI,SCAR,-18.348499,-70.338699,167,-4,S,America/Santiago,airport,OurAirports
ARK,-3.3678,36.6333,224,ARK,1176,Arusha Airport,Arusha,Tanzania,ARK,HTAR,-3.3677899837493896,36.63330078125,4550,3,U,Africa/Dar_es_Salaam,airport,OurAirports
ARM,-30.53,151.6175,225,ARM,4062,Armidale Airport,Armidale,Australia,ARM,YARM,-30.528099060099997,151.617004395,3556,10,O,Australia/Sydney,airport,OurAirports
ARN,59.6519,17.9186,226,ARN,737,Stockholm-Arlanda Airport,Stockholm,Sweden,ARN,ESSA,59.651901245117,17.918600082397,137,1,E,Europe/Stockholm,airport,OurAirports
ARS,-15.8989,-52.2403,227,ARS,NA,NA,NA,NA,NA,NA,NA,NA,NA,NA,NA,NA,NA,NA
ART,43.9919,-76.0217,228,ART,3838,Watertown International Airport,Watertown,United States,ART,KART,43.99190139770508,-76.021697998046875,325,-5,A,America/New_York,airport,OurAirports
ARU,-21.1436,-50.4258,229,ARU,2525,Araçatuba Airport,Aracatuba,Brazil,ARU,SBAU,-21.1413002014,-50.4247016907,1361,-3,S,America/Sao_Paulo,airport,OurAirports
ARV,45.9279,-89.7309,230,ARV,7020,Lakeland-Noble F. Lee Memorial field,Minocqua - Woodruff,United States,ARV,KARV,45.92789841,-89.73090363,1629,-6,A,America/Chicago,airport,OurAirports
ARW,46.1765,21.2620,231,ARW,1647,Arad International Airport,Arad,Romania,ARW,LRAR,46.17660140991211,21.261999130249023,352,2,E,Europe/Bucharest,airport,OurAirports
ARY,-37.3119,142.9906,232,ARY,12012,Ararat Airport,NA,Australia,ARY,YARA,-37.30939865112305,142.98899841308594,1008,NA,\N,\N,airport,OurAirports
ASA,13.0667,42.6333,233,ASA,3966,Assab International Airport,Assab,Eritrea,ASA,HHSB,13.071800231933594,42.64500045776367,46,3,U,Africa/Asmera,airport,OurAirports
ASB,37.9917,58.3633,234,ASB,2976,Ashgabat International Airport,Ashkhabad,Turkmenistan,ASB,UTAA,37.986801,58.361,692,5,U,Asia/Ashgabat,airport,OurAirports
ASD,24.6983,-77.7956,235,ASD,1928,Andros Town Airport,Andros Town,Bahamas,ASD,MYAF,24.697900772094727,-77.79560089111328,5,-5,U,America/Nassau,airport,OurAirports
ASE,39.2232,-106.8688,236,ASE,7001,Aspen-Pitkin Co/Sardy Field,Aspen,United States,ASE,KASE,39.22320175,-106.8690033,7820,-7,A,America/Denver,airport,OurAirports
ASF,46.2833,48.0083,237,ASF,2966,Astrakhan Airport,Astrakhan,Russia,ASF,URWA,46.2832984924,48.0063018799,-65,4,N,Europe/Samara,airport,OurAirports
ASI,-7.97,-14.3933,238,ASI,892,RAF Ascension Island,Wide Awake,Saint Helena,ASI,FHAW,-7.9696,-14.3937,278,0,N,Atlantic/St_Helena,airport,OurAirports
ASJ,28.4308,129.7126,239,ASJ,2316,Amami Airport,Amami,Japan,ASJ,RJKA,28.430599212646484,129.71299743652344,27,9,U,Asia/Tokyo,airport,OurAirports
ASK,6.9061,-5.3626,240,ASK,259,Yamoussoukro Airport,Yamoussoukro,Cote d'Ivoire,ASK,DIYO,6.9031701088,-5.36558008194,699,0,N,Africa/Abidjan,airport,OurAirports
ASM,15.2842,38.9000,241,ASM,3967,Asmara International Airport,Asmara,Eritrea,ASM,HHAS,15.291899681091309,38.910701751708984,7661,3,U,Africa/Asmera,airport,OurAirports
ASO,10.0185,34.5863,242,ASO,1119,Asosa Airport,Asosa,Ethiopia,ASO,HASO,10.018500328063965,34.586299896240234,5100,3,U,Africa/Addis_Ababa,airport,OurAirports
ASP,-23.8067,133.9017,243,ASP,3319,Alice Springs Airport,Alice Springs,Australia,ASP,YBAS,-23.806699752807617,133.90199279785156,1789,9.5,N,Australia/Darwin,airport,OurAirports
ASR,38.7703,35.4953,244,ASR,1696,Kayseri Erkilet Airport,Kayseri,Turkey,ASR,LTAU,38.770401001,35.4953994751,3463,3,E,Europe/Istanbul,airport,OurAirports
AST,44.8373,-117.8075,245,AST,7085,Astoria Regional Airport,Astoria,United States,AST,KAST,46.158000946,-123.878997803,15,-8,A,America/Los_Angeles,airport,OurAirports
ASU,-25.2411,-57.5168,246,ASU,2699,Silvio Pettirossi International Airport,Asuncion,Paraguay,ASU,SGAS,-25.239999771118164,-57.52000045776367,292,-4,S,America/Asuncion,airport,OurAirports
ASV,-2.633,37.2500,247,ASV,5692,Amboseli Airport,Amboseli National Park,Kenya,ASV,HKAM,-2.645050048828125,37.25310134887695,3755,3,U,Africa/Nairobi,airport,OurAirports
ASW,23.9644,32.8200,248,ASW,1136,Aswan International Airport,Aswan,Egypt,ASW,HESN,23.9643993378,32.8199996948,662,2,U,Africa/Cairo,airport,OurAirports
ATA,-9.3436,-77.5958,249,ATA,2788,Comandante FAP German Arias Graziani Airport,Anta,Peru,ATA,SPHZ,-9.347439765930176,-77.59839630126953,9097,-5,U,America/Lima,airport,OurAirports
ATB,17.7097,34.0574,250,ATB,5700,Atbara Airport,Atbara,Sudan,ATB,HSAT,17.710344314575195,34.0570182800293,1181,3,U,Africa/Khartoum,airport,OurAirports
ATC,24.67,-75.7500,251,ATC,5857,Arthur's Town Airport,Arthur's Town,Bahamas,ATC,MYCA,24.6294,-75.673797,18,-5,U,America/Nassau,airport,OurAirports
ATD,-8.8733,161.0114,252,ATD,5404,Uru Harbour Airport,Atoifi,Solomon Islands,ATD,AGAT,-8.87333,161.011002,0,11,U,Pacific/Guadalcanal,airport,OurAirports
ATF,-1.2119,-78.5747,253,ATF,2668,Chachoán Airport,Ambato,Ecuador,ATF,SEAM,-1.2120699882507324,-78.57460021972656,8502,-5,U,America/Guayaquil,airport,OurAirports
ATH,37.9367,23.9445,254,ATH,3941,Eleftherios Venizelos International Airport,Athens,Greece,ATH,LGAV,37.9364013672,23.9444999695,308,2,E,Europe/Athens,airport,OurAirports
ATK,70.4673,-157.4357,255,ATK,6714,Atqasuk Edward Burnell Sr Memorial Airport,Atqasuk,United States,ATK,PATQ,70.46730041503906,-157.43600463867188,96,-9,A,America/Anchorage,airport,OurAirports
ATL,33.6367,-84.4281,256,ATL,3682,Hartsfield Jackson Atlanta International Airport,Atlanta,United States,ATL,KATL,33.6367,-84.428101,1026,-5,A,America/New_York,airport,OurAirports
ATM,-3.2506,-52.2517,257,ATM,2566,Altamira Airport,Altamira,Brazil,ATM,SBHT,-3.2539100646973,-52.254001617432,369,-3,S,America/Belem,airport,OurAirports
ATN,-3.667,152.4330,258,ATN,NA,NA,NA,NA,NA,NA,NA,NA,NA,NA,NA,NA,NA,NA
ATQ,31.7044,74.8021,259,ATQ,3081,Sri Guru Ram Dass Jee International Airport,Amritsar,India,ATQ,VIAR,31.7096004486,74.7973022461,756,5.5,N,Asia/Calcutta,airport,OurAirports
ATR,20.5008,-13.0467,260,ATR,1096,Atar International Airport,Atar,Mauritania,ATR,GQPA,20.506799697875977,-13.04319953918457,734,0,N,Africa/Nouakchott,airport,OurAirports
ATT,60.8667,-162.2731,261,ATT,NA,NA,NA,NA,NA,NA,NA,NA,NA,NA,NA,NA,NA,NA
ATW,44.2581,-88.5191,262,ATW,4047,Appleton International Airport,Appleton,United States,ATW,KATW,44.258098602299995,-88.5190963745,918,-6,A,America/Chicago,airport,OurAirports
ATY,44.914,-97.1547,263,ATY,5721,Watertown Regional Airport,Watertown,United States,ATY,KATY,44.91400146,-97.15470123,1749,-6,A,America/Chicago,airport,OurAirports
ATZ,27.0464,31.0119,264,ATZ,5691,Assiut International Airport,Asyut,Egypt,ATZ,HEAT,27.0464992523,31.0119991302,772,2,U,Africa/Cairo,airport,OurAirports
AUA,12.5014,-70.0152,265,AUA,2895,Queen Beatrix International Airport,Oranjestad,Aruba,AUA,TNCA,12.5014,-70.015198,60,-4,U,America/Aruba,airport,OurAirports
AUC,7.0689,-70.7369,266,AUC,2752,Santiago Perez Airport,Arauca,Colombia,AUC,SKUC,7.06888,-70.7369,420,-5,U,America/Bogota,airport,OurAirports
AUF,47.8464,3.4967,267,AUF,1328,Auxerre-Branches Airport,Auxerre,France,AUF,LFLA,47.85020065307617,3.497109889984131,523,1,E,Europe/Paris,airport,OurAirports
AUG,44.32,-69.7967,268,AUG,3701,Augusta State Airport,Augusta,United States,AUG,KAUG,44.320598602299995,-69.7973022461,352,-5,A,America/New_York,airport,OurAirports
AUH,24.4367,54.6508,269,AUH,2179,Abu Dhabi International Airport,Abu Dhabi,United Arab Emirates,AUH,OMAA,24.433000564575195,54.651100158691406,88,4,U,Asia/Dubai,airport,OurAirports
AUK,62.68,-164.6599,270,AUK,7199,Alakanuk Airport,Alakanuk,United States,AUK,PAUK,62.680042266799994,-164.659927368,10,-9,A,America/Anchorage,airport,OurAirports
AUL,8.1333,171.1667,271,AUL,NA,NA,NA,NA,NA,NA,NA,NA,NA,NA,NA,NA,NA,NA
AUQ,-9.7667,-139.0167,272,AUQ,5890,Hiva Oa-Atuona Airport,Hiva-oa,French Polynesia,AUQ,NTMN,-9.76879024506,-139.011001587,1481,-9.5,U,Pacific/Marquesas,airport,OurAirports
AUR,44.8975,2.4167,273,AUR,1344,Aurillac Airport,Aurillac,France,AUR,LFLW,44.89139938354492,2.4219400882720947,2096,1,E,Europe/Paris,airport,OurAirports
AUS,30.195,-97.6700,274,AUS,3673,Austin Bergstrom International Airport,Austin,United States,AUS,KAUS,30.194499969482422,-97.6698989868164,542,-6,A,America/Chicago,airport,OurAirports
AUU,-13.3539,141.7208,275,AUU,6237,Aurukun Airport,Aurukun,Australia,AUU,YAUR,-13.354067,141.72065,31,10,O,Australia/Brisbane,airport,OurAirports
AUW,44.9285,-89.6266,276,AUW,6853,Wausau Downtown Airport,Wausau,United States,AUW,KAUW,44.9262008667,-89.6266021729,1201,-6,U,America/Chicago,airport,OurAirports
AUX,-7.2281,-48.2403,277,AUX,7376,Araguaína Airport,Araguaina,Brazil,AUX,SWGN,-7.22787,-48.240501,771,-3,S,America/Fortaleza,airport,OurAirports
AUY,-20.2492,169.7714,278,AUY,5914,Aneityum Airport,Anelghowhat,Vanuatu,AUY,NVVA,-20.2492008209,169.770996094,7,11,U,Pacific/Efate,airport,OurAirports
AVA,26.2606,105.8731,279,AVA,9849,Anshun Huangguoshu Airport,Anshun,China,AVA,ZUAS,26.2605555556,105.873333333,4812,8,N,Asia/Shanghai,airport,OurAirports
AVB,45.925,12.4292,280,AVB,1535,Aviano Air Base,Aviano,Italy,AVB,LIPA,46.031898,12.596503,410,1,E,Europe/Rome,airport,OurAirports
AVI,22.0269,-78.7894,281,AVI,1900,Maximo Gomez Airport,Ciego De Avila,Cuba,AVI,MUCA,22.027099609375,-78.78959655761719,335,-5,U,America/Havana,airport,OurAirports
AVL,35.4367,-82.5417,282,AVL,4007,Asheville Regional Airport,Asheville,United States,AVL,KAVL,35.43619918823242,-82.54180145263672,2165,-5,A,America/New_York,airport,OurAirports
AVN,43.9067,4.9019,283,AVN,1361,Avignon-Caumont Airport,Avignon,France,AVN,LFMV,43.90729904174805,4.901830196380615,124,1,E,Europe/Paris,airport,OurAirports
AVP,41.3384,-75.7234,284,AVP,4286,Wilkes Barre Scranton International Airport,Scranton,United States,AVP,KAVP,41.338500976599995,-75.72339630130001,962,-5,A,America/New_York,airport,OurAirports
AVR,38.8855,-9.0281,285,AVR,1616,Alverca Air Base,Alverca,Portugal,AVR,LPAR,38.883301,-9.0301,11,0,E,Europe/Lisbon,airport,OurAirports
AVU,-9.867,160.4000,286,AVU,NA,NA,NA,NA,NA,NA,NA,NA,NA,NA,NA,NA,NA,NA
AVV,-38.0394,144.4694,287,AVV,3332,Avalon Airport,Avalon,Australia,AVV,YMAV,-38.039398,144.468994,35,10,O,Australia/Hobart,airport,OurAirports
AWB,-8,142.7500,288,AWB,NA,NA,NA,NA,NA,NA,NA,NA,NA,NA,NA,NA,NA,NA
AWD,-19.24,169.6050,289,AWD,5915,Aniwa Airport,Aniwa,Vanuatu,AWD,NVVB,-19.2346,169.6009,69,11,U,Pacific/Efate,airport,OurAirports
AWK,19.2819,166.6386,290,AWK,7674,Wake Island Airfield,Wake island,Wake Island,AWK,PWAK,19.282100677490234,166.63600158691406,14,-10,U,Pacific/Johnston,airport,OurAirports
AWZ,31.3375,48.7603,291,AWZ,2104,Ahwaz Airport,Ahwaz,Iran,AWZ,OIAW,31.337400436399996,48.7620010376,66,3.5,E,Asia/Tehran,airport,OurAirports
AXA,18.2047,-63.0539,292,AXA,2900,Clayton J Lloyd International Airport,The Valley,Anguilla,AXA,TQPF,18.2048,-63.055099,127,-4,U,America/Anguilla,airport,OurAirports
AXD,40.8558,25.9561,293,AXD,1446,Dimokritos Airport,Alexandroupolis,Greece,AXD,LGAL,40.855899810791016,25.956300735473633,24,2,E,Europe/Athens,airport,OurAirports
AXK,14.5333,46.8167,294,AXK,3978,Ataq Airport,Ataq,Yemen,AXK,OYAT,14.551300048828125,46.82619857788086,3735,3,U,Asia/Aden,airport,OurAirports
AXM,4.4533,-75.7658,295,AXM,2705,El Eden Airport,Armenia,Colombia,AXM,SKAR,4.45278,-75.7664,3990,-5,U,America/Bogota,airport,OurAirports
AXN,45.8663,-95.3947,296,AXN,11815,Chandler Field,Alexandria,United States,AXN,KAXN,45.8662986755,-95.39469909670001,1425,NA,\N,\N,airport,OurAirports
AXP,22.4418,-73.9709,297,AXP,1932,Spring Point Airport,Spring Point,Bahamas,AXP,MYAP,22.441799163800003,-73.97090148930002,11,-5,U,America/Nassau,airport,OurAirports
AXR,-15.2464,-146.6203,298,AXR,1984,Arutua Airport,Arutua,French Polynesia,AXR,NTGU,-15.248299598693848,-146.61700439453125,9,-10,U,Pacific/Tahiti,airport,OurAirports
AXT,39.6156,140.2185,299,AXT,2345,Akita Airport,Akita,Japan,AXT,RJSK,39.6156005859375,140.218994140625,313,9,U,Asia/Tokyo,airport,OurAirports
AXU,14.1371,38.7761,300,AXU,1110,Axum Airport,Axum,Ethiopia,AXU,HAAX,14.14680004119873,38.77280044555664,6959,3,U,Africa/Addis_Ababa,airport,OurAirports
AYK,50.325,66.9600,301,AYK,7131,Arkalyk North Airport,Arkalyk,Kazakhstan,AYK,UAUR,50.318599700927734,66.95279693603516,1266,6,U,Asia/Qyzylorda,airport,OurAirports
AYP,-13.1511,-74.2017,302,AYP,2786,Coronel FAP Alfredo Mendivil Duarte Airport,Ayacucho,Peru,AYP,SPHO,-13.154800415039062,-74.20439910888672,8917,-5,U,America/Lima,airport,OurAirports
AYQ,-25.1867,130.9750,303,AYQ,4010,Ayers Rock Connellan Airport,Uluru,Australia,AYQ,YAYE,-25.1861,130.975998,1626,9.5,N,Australia/Darwin,airport,OurAirports
AYR,-19.5958,147.3258,304,AYR,NA,NA,NA,NA,NA,NA,NA,NA,NA,NA,NA,NA,NA,NA
AYS,31.2491,-82.3955,305,AYS,13267,Waycross Ware County Airport,Waycross,United States,AYS,KAYS,31.2490997314,-82.39550018310001,142,-5,A,\N,airport,OurAirports
AYT,36.9008,30.7947,306,AYT,1688,Antalya International Airport,Antalya,Turkey,AYT,LTAI,36.898701,30.800501,177,3,E,Europe/Istanbul,airport,OurAirports
AZA,33.3078,-111.6555,307,AZA,6505,Phoenix-Mesa-Gateway Airport,Mesa,United States,AZA,KIWA,33.30780029,-111.6549988,1382,-7,N,America/Phoenix,airport,OurAirports
AZD,31.9061,54.2764,308,AZD,2164,Shahid Sadooghi Airport,Yazd,Iran,AZD,OIYY,31.9048995972,54.2765007019,4054,3.5,E,Asia/Tehran,airport,OurAirports
AZI,24.4283,54.4581,309,AZI,2180,Bateen Airport,Abu Dhabi,United Arab Emirates,AZI,OMAD,24.428300857543945,54.458099365234375,16,4,U,Asia/Dubai,airport,OurAirports
AZN,40.7267,72.2933,310,AZN,6148,Andizhan Airport,Andizhan,Uzbekistan,AZN,UTKA,40.7276992798,72.2939987183,1515,5,U,Asia/Samarkand,airport,OurAirports
AZO,42.2349,-85.5521,311,AZO,4039,Kalamazoo Battle Creek International Airport,Kalamazoo,United States,AZO,KAZO,42.234901428222656,-85.5521011352539,874,-5,A,America/New_York,airport,OurAirports
AZR,27.8392,-0.1853,312,AZR,234,Touat Cheikh Sidi Mohamed Belkebir Airport,Adrar,Algeria,AZR,DAUA,27.837600708007812,-0.18641400337219238,919,1,N,Africa/Algiers,airport,OurAirports
AZS,19.1986,-69.4298,313,AZS,5810,Samaná El Catey International Airport,Samana,Dominican Republic,AZS,MDCY,19.2670001984,-69.7419967651,30,-4,U,America/Santo_Domingo,airport,OurAirports
BAB,39.1362,-121.4365,314,BAB,3638,Beale Air Force Base,Marysville,United States,BAB,KBAB,39.136100769,-121.43699646,113,-8,A,America/Los_Angeles,airport,OurAirports
BAD,32.5018,-93.6627,315,BAD,3842,Barksdale Air Force Base,Shreveport,United States,BAD,KBAD,32.5018005371,-93.6626968384,166,-6,A,America/Chicago,airport,OurAirports
BAF,42.1575,-72.7158,316,BAF,8281,Westfield-Barnes Regional Airport,Westfield,United States,BAF,KBAF,42.157799,-72.715599,271,-5,A,America/New_York,airport,OurAirports
BAG,16.3767,120.6189,317,BAG,2405,Loakan Airport,Baguio,Philippines,BAG,RPUB,16.375099182128906,120.62000274658203,4251,8,N,Asia/Manila,airport,OurAirports
BAH,26.2708,50.6336,318,BAH,2057,Bahrain International Airport,Bahrain,Bahrain,BAH,OBBI,26.27079963684082,50.63359832763672,6,3,U,Asia/Bahrain,airport,OurAirports
BAL,37.9322,41.1164,319,BAL,1729,Batman Airport,Batman,Turkey,BAL,LTCJ,37.929000854499996,41.1166000366,1822,3,E,Europe/Istanbul,airport,OurAirports
BAM,40.599,-116.8743,320,BAM,NA,NA,NA,NA,NA,NA,NA,NA,NA,NA,NA,NA,NA,NA
BAQ,10.8894,-74.7806,321,BAQ,2710,Ernesto Cortissoz International Airport,Barranquilla,Colombia,BAQ,SKBQ,10.8896,-74.7808,98,-5,U,America/Bogota,airport,OurAirports
BAS,-6.967,155.8830,322,BAS,5406,Ballalae Airport,Ballalae,Solomon Islands,BAS,AGGE,-6.990745,155.886656,5,11,U,Pacific/Guadalcanal,airport,OurAirports
BAT,-20.585,-48.5953,323,BAT,11930,Chafei Amsei Airport,Barretos,Brazil,BAT,SBBT,-20.584499359131,-48.594100952148,1898,NA,\N,\N,airport,OurAirports
BAU,-22.3436,-49.0539,324,BAU,2532,Bauru Airport,Bauru,Brazil,BAU,SBBU,-22.3449993134,-49.0537986755,2025,-3,S,America/Sao_Paulo,airport,OurAirports
BAV,40.56,109.9969,325,BAV,6346,Baotou Airport,Baotou,China,BAV,ZBOW,40.560001373291016,109.99700164794922,3321,8,U,Asia/Shanghai,airport,OurAirports
BAX,53.3633,83.5417,326,BAX,2956,Barnaul Airport,Barnaul,Russia,BAX,UNBB,53.363800048828125,83.53849792480469,837,7,N,Asia/Krasnoyarsk,airport,OurAirports
BAY,47.6583,23.4662,327,BAY,1649,Tautii Magheraus Airport,Baia Mare,Romania,BAY,LRBM,47.65840148925781,23.469999313354492,605,2,E,Europe/Bucharest,airport,OurAirports
BAZ,-0.9808,-62.9189,328,BAZ,7399,Barcelos Airport,Barcelos,Brazil,BAZ,SWBC,-0.981292,-62.919601,112,-4,S,America/Boa_Vista,airport,OurAirports
BBA,-45.9186,-71.6972,329,BBA,2642,Balmaceda Airport,Balmaceda,Chile,BBA,SCBA,-45.916099548339844,-71.68949890136719,1722,-4,S,America/Santiago,airport,OurAirports
BBH,54.3382,12.7101,330,BBH,329,Barth Airport,Barth,Germany,BBH,EDBH,54.338253,12.710515,23,1,E,Europe/Berlin,airport,OurAirports
BBI,20.2467,85.8185,331,BBI,3042,Biju Patnaik Airport,Bhubaneswar,India,BBI,VEBS,20.244400024399997,85.8178024292,138,5.5,N,Asia/Calcutta,airport,OurAirports
BBJ,49.9453,6.5650,332,BBJ,8862,Bitburg Airport,Birburg,Germany,BBJ,EDRB,49.945278,6.565,1220,1,U,Europe/Berlin,airport,OurAirports
BBK,-17.8297,25.1631,333,BBK,879,Kasane Airport,Kasane,Botswana,BBK,FBKE,-17.83289909362793,25.162399291992188,3289,2,U,Africa/Gaborone,airport,OurAirports
BBM,13.103,103.2294,334,BBM,6171,Battambang Airport,Battambang,Cambodia,BBM,VDBG,13.095600128173828,103.2239990234375,59,7,U,Asia/Phnom_Penh,airport,OurAirports
BBN,3.7339,115.4786,335,BBN,6220,Bario Airport,Bario,Malaysia,BBN,WBGZ,3.7338900566101074,115.47899627685547,3350,8,N,Asia/Kuala_Lumpur,airport,OurAirports
BBO,10.3833,44.9500,336,BBO,1122,Berbera Airport,Berbera,Somalia,BBO,HCMI,10.389200210571289,44.94110107421875,30,3,U,Africa/Mogadishu,airport,OurAirports
BBQ,17.6275,-61.8269,337,BBQ,6074,Codrington Airport,Codrington,Antigua and Barbuda,BBQ,TAPH,17.635799,-61.828602,15,-4,U,America/Antigua,airport,OurAirports
BBS,51.3239,-0.8475,338,BBS,506,Blackbushe Airport,Blackbushe,United Kingdom,BBS,EGLK,51.32389831542969,-0.8475000262260437,325,0,E,Europe/London,airport,OurAirports
BBT,4.2261,15.7856,339,BBT,889,Berbérati Airport,Berberati,Central African Republic,BBT,FEFT,4.2215800285339355,15.786399841308594,1929,1,N,Africa/Bangui,airport,OurAirports
BBU,44.5035,26.1036,340,BBU,1650,Băneasa International Airport,Bucharest,Romania,BBU,LRBS,44.50320053100586,26.102100372314453,297,2,E,Europe/Bucharest,airport,OurAirports
BBW,41.4367,-99.6417,341,BBW,NA,NA,NA,NA,NA,NA,NA,NA,NA,NA,NA,NA,NA,NA
BCA,20.3647,-74.5067,342,BCA,1898,Gustavo Rizo Airport,Baracoa Playa,Cuba,BCA,MUBA,20.365299224853516,-74.5062026977539,26,-5,U,America/Havana,airport,OurAirports
BCD,10.6425,122.9296,343,BCD,2423,Bacolod-Silay Airport,Bacolod,Philippines,BCD,RPVB,10.7764,123.014999,82,8,N,Asia/Manila,airport,OurAirports
BCH,-8.4854,126.3993,344,BCH,3311,Cakung Airport,Baucau,East Timor,BCH,WPEC,-8.489029884339999,126.401000977,1771,9,U,Asia/Dili,airport,OurAirports
BCI,-23.565,145.3094,345,BCI,6238,Barcaldine Airport,Barcaldine,Australia,BCI,YBAR,-23.5652999878,145.307006836,878,10,O,Australia/Brisbane,airport,OurAirports
BCL,10.7687,-83.5856,346,BCL,5843,Barra del Colorado Airport,Pococi,Costa Rica,BCL,MRBC,10.768699645996094,-83.585601806640625,3,-6,U,America/Costa_Rica,airport,OurAirports
BCM,46.5219,26.9103,347,BCM,1648,Bacău Airport,Bacau,Romania,BCM,LRBC,46.52190017700195,26.91029930114746,607,2,E,Europe/Bucharest,airport,OurAirports
BCN,41.2971,2.0785,348,BCN,1218,Barcelona International Airport,Barcelona,Spain,BCN,LEBL,41.2971,2.07846,12,1,E,Europe/Madrid,airport,OurAirports
BCR,-8.8333,-67.3117,349,BCR,NA,NA,NA,NA,NA,NA,NA,NA,NA,NA,NA,NA,NA,NA
BCT,26.3784,-80.1076,350,BCT,3831,Boca Raton Airport,Boca Raton,United States,BCT,KBCT,26.3784999847,-80.1076965332,13,-5,A,America/New_York,airport,OurAirports
BCV,17.2694,-88.7761,351,BCV,NA,NA,NA,NA,NA,NA,NA,NA,NA,NA,NA,NA,NA,NA
BCW,-23.7333,35.1167,352,BCW,NA,NA,NA,NA,NA,NA,NA,NA,NA,NA,NA,NA,NA,NA
BDA,32.364,-64.6787,353,BDA,4069,L.F. Wade International International Airport,Bermuda,Bermuda,BDA,TXKF,32.36399841308594,-64.67870330810547,12,-4,A,Atlantic/Bermuda,airport,OurAirports
BDB,-24.9053,152.3175,354,BDB,4218,Bundaberg Airport,Bundaberg,Australia,BDB,YBUD,-24.903900146499996,152.319000244,107,10,O,Australia/Brisbane,airport,OurAirports
BDD,-10.15,142.1742,355,BDD,6239,Badu Island Airport,Badu Island,Australia,BDD,YBAU,-10.149999618499999,142.1734,14,10,O,Australia/Brisbane,airport,OurAirports
BDE,48.7284,-94.6122,356,BDE,3662,Baudette International Airport,Baudette,United States,BDE,KBDE,48.7284011841,-94.612197876,1086,-6,A,America/Chicago,airport,OurAirports
BDH,26.5314,54.8275,357,BDH,2110,Bandar Lengeh Airport,Bandar Lengeh,Iran,BDH,OIBL,26.531999588,54.824798584,67,3.5,E,Asia/Tehran,airport,OurAirports
BDJ,-3.4397,114.7528,358,BDJ,3908,Syamsudin Noor Airport,Banjarmasin,Indonesia,BDJ,WAOO,-3.4423599243164062,114.76300048828125,66,8,N,Asia/Makassar,airport,OurAirports
BDL,41.9389,-72.6832,359,BDL,3825,Bradley International Airport,Windsor Locks,United States,BDL,KBDL,41.9388999939,-72.68319702149999,173,-5,A,America/New_York,airport,OurAirports
BDM,40.3156,27.9828,360,BDM,1703,Bandırma Airport,Bandirma,Turkey,BDM,LTBG,40.31800079345703,27.977699279785156,170,3,E,Europe/Istanbul,airport,OurAirports
BDO,-6.9019,107.5761,361,BDO,3896,Husein Sastranegara International Airport,Bandung,Indonesia,BDO,WICC,-6.900629997253418,107.57599639892578,2436,7,N,Asia/Jakarta,airport,OurAirports
BDP,26.5703,88.0758,362,BDP,6180,Bhadrapur Airport,Chandragarhi,Nepal,BDP,VNCG,26.5708007812,88.07959747310001,300,5.75,N,Asia/Katmandu,airport,OurAirports
BDQ,22.3294,73.2194,363,BDQ,3001,Vadodara Airport,Baroda,India,BDQ,VABO,22.336201,73.226303,129,5.5,N,Asia/Calcutta,airport,OurAirports
BDR,41.1607,-73.1245,364,BDR,3579,Igor I Sikorsky Memorial Airport,Stratford,United States,BDR,KBDR,41.16350173950195,-73.1261978149414,9,-5,A,America/New_York,airport,OurAirports
BDS,40.6606,17.9481,365,BDS,1506,Brindisi – Salento Airport,Brindisi,Italy,BDS,LIBR,40.6576,17.947001,47,1,E,Europe/Rome,airport,OurAirports
BDT,4.25,20.9667,366,BDT,1027,Gbadolite Airport,Gbadolite,Congo (Kinshasa),BDT,FZFD,4.253210067749023,20.975299835205078,1509,1,N,Africa/Kinshasa,airport,OurAirports
BDU,69.0558,18.5403,367,BDU,640,Bardufoss Airport,Bardufoss,Norway,BDU,ENDU,69.055801391602,18.540399551392,252,1,E,Europe/Oslo,airport,OurAirports
BEB,57.4811,-7.3628,368,BEB,538,Benbecula Airport,Benbecula,United Kingdom,BEB,EGPL,57.48109817504883,-7.3627800941467285,19,0,E,Europe/London,airport,OurAirports
BED,42.47,-71.2900,369,BED,3425,Laurence G Hanscom Field,Bedford,United States,BED,KBED,42.47000122,-71.28900146,133,-5,A,America/New_York,airport,OurAirports
BEG,44.8194,20.3125,370,BEG,1739,Belgrade Nikola Tesla Airport,Belgrade,Serbia,BEG,LYBE,44.8184013367,20.3090991974,335,1,E,Europe/Belgrade,airport,OurAirports
BEJ,2.1533,117.4311,371,BEJ,6209,Kalimarau Airport,Tanjung Redep-Borneo Island,Indonesia,BEJ,WALK,2.1555,117.431999,59,8,N,Asia/Makassar,airport,OurAirports
BEL,-1.3847,-48.4789,372,BEL,2526,Val de Cans/Júlio Cezar Ribeiro International Airport,Belem,Brazil,BEL,SBBE,-1.3792500495900002,-48.4762992859,54,-3,S,America/Belem,airport,OurAirports
BEN,32.0975,20.2708,373,BEN,1154,Benina International Airport,Benghazi,Libya,BEN,HLLB,32.096801757799994,20.2695007324,433,2,N,Africa/Tripoli,airport,OurAirports
BEP,15.1628,76.8828,374,BEP,3132,Bellary Airport,Bellary,India,BEP,VOBI,15.162799835205078,76.88279724121094,30,5.5,N,Asia/Calcutta,airport,OurAirports
BES,48.4472,-4.4217,375,BES,1403,Brest Bretagne Airport,Brest,France,BES,LFRB,48.447898864746094,-4.418540000915527,325,1,E,Europe/Paris,airport,OurAirports
BET,60.7798,-161.8380,376,BET,3599,Bethel Airport,Bethel,United States,BET,PABE,60.77980042,-161.8379974,126,-9,A,America/Anchorage,airport,OurAirports
BEU,-24.3467,139.4600,377,BEU,6243,Bedourie Airport,Bedourie,Australia,BEU,YBIE,-24.346099853515625,139.4600067138672,300,10,O,Australia/Brisbane,airport,OurAirports
BEV,31.2881,34.7231,378,BEV,1591,Beersheba (Teyman) Airport,Beer-sheba,Israel,BEV,LLBS,31.287000656128,34.722999572754,656,2,E,Asia/Jerusalem,airport,OurAirports
BEW,-19.7947,34.8992,379,BEW,974,Beira Airport,Beira,Mozambique,BEW,FQBR,-19.79640007019043,34.90760040283203,33,2,U,Africa/Maputo,airport,OurAirports
BEX,51.6147,-1.0939,380,BEX,555,RAF Benson,Benson,United Kingdom,BEX,EGUB,51.616401672399995,-1.09582996368,226,0,E,Europe/London,airport,OurAirports
BEY,33.8206,35.4900,381,BEY,2177,Beirut Rafic Hariri International Airport,Beirut,Lebanon,BEY,OLBA,33.820899963378906,35.488399505615234,87,2,E,Asia/Beirut,airport,OurAirports
BFD,41.803,-78.6402,382,BFD,5722,Bradford Regional Airport,Bradford,United States,BFD,KBFD,41.8031005859375,-78.64009857177734,2143,-5,A,America/New_York,airport,OurAirports
BFF,41.874,-103.5956,383,BFF,5723,Western Neb. Rgnl/William B. Heilig Airport,Scottsbluff,United States,BFF,KBFF,41.87400055,-103.5960007,3967,-7,A,America/Denver,airport,OurAirports
BFI,47.53,-122.3020,384,BFI,3726,Boeing Field King County International Airport,Seattle,United States,BFI,KBFI,47.529998779296875,-122.302001953125,21,-8,A,America/Los_Angeles,airport,OurAirports
BFJ,27.3003,105.3014,385,BFJ,9025,Bijie Feixiong Airport,Bijie,China,BFJ,ZUBJ,27.267066,105.472097,4751,8,N,Asia/Shanghai,airport,OurAirports
BFL,35.4333,-119.0567,386,BFL,3558,Meadows Field,Bakersfield,United States,BFL,KBFL,35.43360138,-119.0569992,510,-8,A,America/Los_Angeles,airport,OurAirports
BFM,30.6267,-88.0681,387,BFM,3452,Mobile Downtown Airport,Mobile,United States,BFM,KBFM,30.626800537100003,-88.06809997559999,26,-6,A,America/Chicago,airport,OurAirports
BFN,-29.0938,26.3040,388,BFN,794,Bram Fischer International Airport,Bloemfontein,South Africa,BFN,FABL,-29.092699050900002,26.302400589,4458,2,U,Africa/Johannesburg,airport,OurAirports
BFO,-21.0086,31.5794,389,BFO,1003,Buffalo Range Airport,Chiredzi,Zimbabwe,BFO,FVCZ,-21.008101,31.5786,1421,2,U,Africa/Harare,airport,OurAirports
BFP,40.7725,-80.3915,390,BFP,8790,Beaver County Airport,Beaver Falls,United States,BFP,KBVI,40.7724990845,-80.39140319820001,1253,-5,A,America/New_York,airport,OurAirports
BFQ,7.583,-78.2000,391,BFQ,NA,NA,NA,NA,NA,NA,NA,NA,NA,NA,NA,NA,NA,NA
BFS,54.6575,-6.2158,392,BFS,465,Belfast International Airport,Belfast,United Kingdom,BFS,EGAA,54.6575012207,-6.2158298492399995,268,0,E,Europe/London,airport,OurAirports
BFV,15.2267,103.2511,393,BFV,4133,Buri Ram Airport,Buri Ram,Thailand,BFV,VTUO,15.229499816894531,103.25299835205078,590,7,U,Asia/Bangkok,airport,OurAirports
BFX,5.5347,10.3558,394,BFX,902,Bafoussam Airport,Bafoussam,Cameroon,BFX,FKKU,5.536920070650001,10.354599952700001,4347,1,N,Africa/Douala,airport,OurAirports
BGA,7.1269,-73.1850,395,BGA,2708,Palonegro Airport,Bucaramanga,Colombia,BGA,SKBG,7.1265,-73.1848,3897,-5,U,America/Bogota,airport,OurAirports
BGC,41.8567,-6.7075,396,BGC,1618,Bragança Airport,Braganca,Portugal,BGC,LPBG,41.8578,-6.70713,2241,0,E,Europe/Lisbon,airport,OurAirports
BGF,4.3977,18.5198,397,BGF,888,Bangui M'Poko International Airport,Bangui,Central African Republic,BGF,FEFF,4.39847993850708,18.518800735473633,1208,1,N,Africa/Bangui,airport,OurAirports
BGG,38.86,40.5939,398,BGG,9272,Bingöl Çeltiksuyu Airport,Bingol,Turkey,BGG,LTCU,38.8592605591,40.5959625244,3506,3,E,Europe/Istanbul,airport,OurAirports
BGI,13.0746,-59.4921,399,BGI,2875,Sir Grantley Adams International Airport,Bridgetown,Barbados,BGI,TBPB,13.0746002197,-59.4925003052,169,-4,U,America/Barbados,airport,OurAirports
BGM,42.2087,-75.9731,400,BGM,4129,Greater Binghamton/Edwin A Link field,Binghamton,United States,BGM,KBGM,42.20869827,-75.97979736,1636,-5,A,America/New_York,airport,OurAirports
BGN,51.2,6.1333,401,BGN,11954,Belaya Gora Airport,NA,Russia,BGN,UESG,68.556602,146.231506,118,NA,\N,\N,airport,OurAirports
BGO,60.2936,5.2181,402,BGO,636,Bergen Airport Flesland,Bergen,Norway,BGO,ENBR,60.29339981,5.218140125,170,1,E,Europe/Oslo,airport,OurAirports
BGR,44.8074,-68.8281,403,BGR,3463,Bangor International Airport,Bangor,United States,BGR,KBGR,44.80739974975586,-68.8281021118164,192,-5,A,America/New_York,airport,OurAirports
BGU,4.7833,22.7833,404,BGU,NA,NA,NA,NA,NA,NA,NA,NA,NA,NA,NA,NA,NA,NA
BGW,33.35,44.4170,405,BGW,4130,Baghdad International Airport,Baghdad,Iraq,BGW,ORBI,33.262500762900004,44.2346000671,114,3,U,Asia/Baghdad,airport,OurAirports
BGX,-31.3908,-54.1097,406,BGX,2527,Comandante Gustavo Kraemer Airport,Bage,Brazil,BGX,SBBG,-31.39049911499,-54.112201690674,600,-3,S,America/Sao_Paulo,airport,OurAirports
BGY,45.6689,9.7003,407,BGY,1525,Il Caravaggio International Airport,Bergamo,Italy,BGY,LIME,45.673901,9.70417,782,1,E,Europe/Rome,airport,OurAirports
BHA,-0.605,-80.4042,408,BHA,NA,NA,NA,NA,NA,NA,NA,NA,NA,NA,NA,NA,NA,NA
BHB,44.4498,-68.3616,409,BHB,4025,Hancock County-Bar Harbor Airport,Bar Harbor,United States,BHB,KBHB,44.45000076,-68.3615036,83,-5,A,America/New_York,airport,OurAirports
BHD,54.6181,-5.8725,410,BHD,467,George Best Belfast City Airport,Belfast,United Kingdom,BHD,EGAC,54.618099212646484,-5.872499942779541,15,0,E,Europe/London,airport,OurAirports
BHE,-41.5183,173.8703,411,BHE,2037,Woodbourne Airport,Woodbourne,New Zealand,BHE,NZWB,-41.5182991027832,173.8699951171875,109,12,Z,Pacific/Auckland,airport,OurAirports
BHG,15.735,-84.5425,412,BHG,6774,Brus Laguna Airport,Brus Laguna,Honduras,BHG,MHBL,15.7631,-84.543602,19,-6,U,America/Tegucigalpa,airport,OurAirports
BHH,19.9842,42.6231,413,BHH,2062,Bisha Airport,Bisha,Saudi Arabia,BHH,OEBH,19.984399795532227,42.62089920043945,3887,3,U,Asia/Riyadh,airport,OurAirports
BHI,-38.7203,-62.1575,414,BHI,2501,Comandante Espora Airport,Bahia Blanca,Argentina,BHI,SAZB,-38.725,-62.1693,246,-3,N,America/Buenos_Aires,airport,OurAirports
BHJ,23.2867,69.6700,415,BHJ,2999,Bhuj Airport,Bhuj,India,BHJ,VABJ,23.2877998352,69.6701965332,268,5.5,N,Asia/Calcutta,airport,OurAirports
BHK,39.775,64.4833,416,BHK,2980,Bukhara Airport,Bukhara,Uzbekistan,BHK,UTSB,39.775001525878906,64.4832992553711,751,5,U,Asia/Samarkand,airport,OurAirports
BHM,33.5629,-86.7535,417,BHM,3811,Birmingham-Shuttlesworth International Airport,Birmingham,United States,BHM,KBHM,33.56290054,-86.75350189,650,-6,A,America/Chicago,airport,OurAirports
BHO,23.2869,77.3369,418,BHO,3002,Raja Bhoj International Airport,Bhopal,India,BHO,VABP,23.2875003815,77.3374023438,1711,5.5,N,Asia/Calcutta,airport,OurAirports
BHQ,-32.0017,141.4717,419,BHQ,6241,Broken Hill Airport,Broken Hill,Australia,BHQ,YBHI,-32.0013999939,141.472000122,958,9.5,O,Australia/Adelaide,airport,OurAirports
BHR,27.6781,84.4294,420,BHR,6179,Bharatpur Airport,Bharatpur,Nepal,BHR,VNBP,27.678101,84.429398,600,5.75,N,Asia/Katmandu,airport,OurAirports
BHS,-33.4111,149.6528,421,BHS,6249,Bathurst Airport,Bathurst,Australia,BHS,YBTH,-33.4094009399,149.651992798,2435,10,O,Australia/Sydney,airport,OurAirports
BHU,21.7542,72.1906,422,BHU,3003,Bhavnagar Airport,Bhaunagar,India,BHU,VABV,21.752199173,72.1852035522,44,5.5,N,Asia/Calcutta,airport,OurAirports
BHV,29.3444,71.7125,423,BHV,5939,Bahawalpur Airport,Bahawalpur,Pakistan,BHV,OPBW,29.348100662231445,71.71800231933594,392,5,N,Asia/Karachi,airport,OurAirports
BHX,52.4539,-1.7480,424,BHX,469,Birmingham International Airport,Birmingham,United Kingdom,BHX,EGBB,52.453899383499994,-1.74802994728,327,0,E,Europe/London,airport,OurAirports
BHY,21.5394,109.2939,425,BHY,6351,Beihai Airport,Beihai,China,BHY,ZGBH,21.5394,109.293999,0,8,U,Asia/Shanghai,airport,OurAirports
BIA,42.55,9.4847,426,BIA,1321,Bastia-Poretta Airport,Bastia,France,BIA,LFKB,42.55270004272461,9.48373031616211,26,1,E,Europe/Paris,airport,OurAirports
BIC,57.66,-157.5800,427,BIC,NA,NA,NA,NA,NA,NA,NA,NA,NA,NA,NA,NA,NA,NA
BID,41.1681,-71.5778,428,BID,8195,Block Island State Airport,Block Island,United States,BID,KBID,41.1680984497,-71.577796936,108,-5,A,America/New_York,airport,OurAirports
BIE,40.3017,-96.7533,429,BIE,NA,NA,NA,NA,NA,NA,NA,NA,NA,NA,NA,NA,NA,NA
BIF,31.8495,-106.3800,430,BIF,3595,Biggs Army Air Field (Fort Bliss),El Paso,United States,BIF,KBIF,31.84950066,-106.3799973,3946,-7,A,America/Denver,airport,OurAirports
BIG,63.9945,-145.7216,431,BIG,3475,Allen Army Airfield,Delta Junction,United States,BIG,PABI,63.9944992065,-145.722000122,1291,-9,A,America/Anchorage,airport,OurAirports
BIH,37.3731,-118.3636,432,BIH,11818,Eastern Sierra Regional Airport,Bishop,United States,BIH,KBIH,37.3731002808,-118.363998413,4124,NA,\N,\N,airport,OurAirports
BII,11.5225,165.5650,433,BII,NA,NA,NA,NA,NA,NA,NA,NA,NA,NA,NA,NA,NA,NA
BIK,-1.1919,136.1100,434,BIK,3241,Frans Kaisiepo Airport,Biak,Indonesia,BIK,WABB,-1.190019965171814,136.10800170898438,46,9,N,Asia/Jayapura,airport,OurAirports
BIL,45.8077,-108.5429,435,BIL,4021,Billings Logan International Airport,Billings,United States,BIL,KBIL,45.807701110839844,-108.54299926757812,3652,-7,A,America/Denver,airport,OurAirports
BIM,25.6999,-79.2647,436,BIM,1937,South Bimini Airport,Alice Town,Bahamas,BIM,MYBS,25.6998996735,-79.2647018433,10,-5,U,America/Nassau,airport,OurAirports
BIO,43.3011,-2.9106,437,BIO,1216,Bilbao Airport,Bilbao,Spain,BIO,LEBB,43.30110168457031,-2.9106099605560303,138,1,E,Europe/Madrid,airport,OurAirports
BIQ,43.4683,-1.5311,438,BIQ,1280,Biarritz-Anglet-Bayonne Airport,Biarritz-bayonne,France,BIQ,LFBZ,43.4683333,-1.5311111,245,1,E,Europe/Paris,airport,OurAirports
BIR,26.484,87.2643,439,BIR,3129,Biratnagar Airport,Biratnagar,Nepal,BIR,VNVT,26.48150062561035,87.26399993896484,236,5.75,N,Asia/Katmandu,airport,OurAirports
BIS,46.774,-100.7467,440,BIS,4083,Bismarck Municipal Airport,Bismarck,United States,BIS,KBIS,46.772701263427734,-100.74600219726562,1661,-6,A,America/Chicago,airport,OurAirports
BIV,6.5267,21.9900,441,BIV,NA,NA,NA,NA,NA,NA,NA,NA,NA,NA,NA,NA,NA,NA
BIX,30.4113,-88.9236,442,BIX,3538,Keesler Air Force Base,Biloxi,United States,BIX,KBIX,30.4104003906,-88.92440032959999,33,-6,A,America/Chicago,airport,OurAirports
BIY,-32.895,27.2850,443,BIY,793,Bisho Airport,Bisho,South Africa,BIY,FABE,-32.8970985413,27.279100418099997,1950,2,U,Africa/Johannesburg,airport,OurAirports
BJA,36.7119,5.0694,444,BJA,209,Soummam Airport,Bejaja,Algeria,BJA,DAAE,36.7120018005,5.0699200630200005,20,1,N,Africa/Algiers,airport,OurAirports
BJB,37.4892,57.3064,445,BJB,5930,Bojnord Airport,Bojnourd,Iran,BJB,OIMN,37.49300003051758,57.30820083618164,3499,3.5,E,Asia/Tehran,airport,OurAirports
BJC,39.9083,-105.1167,446,BJC,7822,Rocky Mountain Metropolitan Airport,Broomfield-CO,United States,BJC,KBJC,39.90879822,-105.1169968,5673,-7,A,America/Denver,airport,OurAirports
BJF,70.6003,29.6925,447,BJF,637,Båtsfjord Airport,Batsfjord,Norway,BJF,ENBS,70.60050201416,29.691400527954,490,1,E,Europe/Oslo,airport,OurAirports
BJI,47.5094,-94.9337,448,BJI,4287,Bemidji Regional Airport,Bemidji,United States,BJI,KBJI,47.50939941,-94.93370056,1391,-6,A,America/Chicago,airport,OurAirports
BJL,13.3425,-16.6578,449,BJL,1050,Banjul International Airport,Banjul,Gambia,BJL,GBYD,13.338000297546387,-16.65220069885254,95,0,N,Africa/Banjul,airport,OurAirports
BJM,-3.3178,29.3172,450,BJM,1120,Bujumbura International Airport,Bujumbura,Burundi,BJM,HBBA,-3.3240199089050293,29.318500518798828,2582,2,U,Africa/Bujumbura,airport,OurAirports
BJR,11.6063,37.3197,451,BJR,1111,Bahir Dar Airport,Bahar Dar,Ethiopia,BJR,HABD,11.608099937438965,37.32160186767578,5978,3,U,Africa/Addis_Ababa,airport,OurAirports
BJT,6.4833,79.9833,452,BJT,NA,NA,NA,NA,NA,NA,NA,NA,NA,NA,NA,NA,NA,NA
BJV,37.2472,27.6814,453,BJV,4315,Milas Bodrum International Airport,Bodrum,Turkey,BJV,LTFE,37.25059890749999,27.6643009186,21,3,E,Europe/Istanbul,airport,OurAirports
BJX,20.9933,-101.4810,454,BJX,1815,Del Bajío International Airport,Del Bajio,Mexico,BJX,MMLO,20.9935,-101.481003,5956,-6,S,America/Mexico_City,airport,OurAirports
BJY,44.9236,20.2790,455,BJY,11894,Batajnica Air Base,Batajnica,Serbia,BJY,LYBT,44.935299,20.2575,265,NA,\N,\N,airport,OurAirports
BJZ,38.8912,-6.8213,456,BJZ,1219,Badajoz Airport,Badajoz,Spain,BJZ,LEBZ,38.891300201416016,-6.8213300704956055,609,1,E,Europe/Madrid,airport,OurAirports
BKA,55.6172,38.0600,457,BKA,4360,Bykovo Airport,Moscow,Russia,BKA,UUBB,55.6171989441,38.0600013733,427,3,N,Europe/Moscow,airport,OurAirports
BKC,65.9816,-161.1491,458,BKC,7178,Buckland Airport,Buckland,United States,BKC,PABL,65.9815979004,-161.149002075,31,-9,A,America/Anchorage,airport,OurAirports
BKE,44.8373,-117.8091,459,BKE,11819,Baker City Municipal Airport,Baker City,United States,BKE,KBKE,44.837299346900004,-117.808998108,3373,NA,\N,\N,airport,OurAirports
BKF,39.7017,-104.7517,460,BKF,NA,NA,NA,NA,NA,NA,NA,NA,NA,NA,NA,NA,NA,NA
BKG,36.5321,-93.2005,461,BKG,6962,Branson Airport,Branson,United States,BKG,KBBG,36.532082,-93.200544,1302,-6,A,America/Chicago,airport,OurAirports
BKI,5.9447,116.0531,462,BKI,3269,Kota Kinabalu International Airport,Kota Kinabalu,Malaysia,BKI,WBKK,5.9372100830078125,116.0510025024414,10,8,N,Asia/Kuala_Lumpur,airport,OurAirports
BKK,13.6811,100.7473,463,BKK,3885,Suvarnabhumi Airport,Bangkok,Thailand,BKK,VTBS,13.681099891662598,100.74700164794922,5,7,U,Asia/Bangkok,airport,OurAirports
BKL,41.525,-81.6833,464,BKL,8544,Burke Lakefront Airport,Cleveland,United States,BKL,KBKL,41.51750183105469,-81.68329620361328,583,-5,A,America/New_York,airport,OurAirports
BKM,3.974,115.6180,465,BKM,6218,Bakalalan Airport,Bakalalan,Malaysia,BKM,WBGQ,3.9739999771118164,115.61799621582031,2900,8,N,Asia/Kuala_Lumpur,airport,OurAirports
BKO,12.5379,-7.9433,466,BKO,1044,Modibo Keita International Airport,Bamako,Mali,BKO,GABS,12.5335,-7.94994,1247,0,N,Africa/Bamako,airport,OurAirports
BKQ,-24.4267,145.4233,467,BKQ,4217,Blackall Airport,Blackall,Australia,BKQ,YBCK,-24.427799224900003,145.429000854,928,10,O,Australia/Brisbane,airport,OurAirports
BKS,-3.8611,102.3394,468,BKS,3288,Fatmawati Soekarno Airport,Bengkulu,Indonesia,BKS,WIPL,-3.8637,102.338997,50,7,N,Asia/Jakarta,airport,OurAirports
BKW,37.7867,-81.1244,469,BKW,5724,Raleigh County Memorial Airport,Beckley,United States,BKW,KBKW,37.787300109899995,-81.1241989136,2504,-5,A,America/New_York,airport,OurAirports
BKY,-2.309,28.8088,470,BKY,1035,Bukavu Kavumu Airport,Bukavu/kavumu,Congo (Kinshasa),BKY,FZMA,-2.3089799880981445,28.808799743652344,5643,2,U,Africa/Lubumbashi,airport,OurAirports
BKZ,-1.3,31.8000,471,BKZ,5703,Bukoba Airport,Bukoba,Tanzania,BKZ,HTBU,-1.332,31.8212,3784,3,U,Africa/Dar_es_Salaam,airport,OurAirports
BLA,10.1167,-64.6833,472,BLA,2821,General José Antonio Anzoategui International Airport,Barcelona,Venezuela,BLA,SVBC,10.111111,-64.692222,30,-4,U,America/Caracas,airport,OurAirports
BLB,8.9148,-79.5996,473,BLB,1868,Panama Pacific International Airport,Howard,Panama,BLB,MPHO,8.91479,-79.599602,52,-5,U,America/Panama,airport,OurAirports
BLD,35.9475,-114.8611,474,BLD,NA,NA,NA,NA,NA,NA,NA,NA,NA,NA,NA,NA,NA,NA
BLE,60.4222,15.5150,475,BLE,739,Borlange Airport,Borlange,Sweden,BLE,ESSD,60.422000885009766,15.515199661254883,503,1,E,Europe/Stockholm,airport,OurAirports
BLF,37.2958,-81.2077,476,BLF,6128,Mercer County Airport,Bluefield,United States,BLF,KBLF,37.295799255371094,-81.20770263671875,2857,-5,A,America/New_York,airport,OurAirports
BLH,33.6192,-114.7168,477,BLH,4136,Blythe Airport,Blythe,United States,BLH,KBLH,33.6192016602,-114.717002869,399,-8,A,America/Los_Angeles,airport,OurAirports
BLI,48.7927,-122.5375,478,BLI,3777,Bellingham International Airport,Bellingham,United States,BLI,KBLI,48.79280090332031,-122.53800201416016,170,-8,A,America/Los_Angeles,airport,OurAirports
BLJ,35.7592,6.3225,479,BLJ,5552,Batna Airport,Batna,Algeria,BLJ,DABT,35.752101898199996,6.308589935300001,2697,1,N,Africa/Algiers,airport,OurAirports
BLK,53.7716,-3.0286,480,BLK,514,Blackpool International Airport,Blackpool,United Kingdom,BLK,EGNH,53.77170181274414,-3.0286099910736084,34,0,E,Europe/London,airport,OurAirports
BLL,55.7403,9.1518,481,BLL,608,Billund Airport,Billund,Denmark,BLL,EKBI,55.7402992249,9.15178012848,247,1,E,Europe/Copenhagen,airport,OurAirports
BLQ,44.5306,11.2969,482,BLQ,1538,Bologna Guglielmo Marconi Airport,Bologna,Italy,BLQ,LIPE,44.5354,11.2887,123,1,E,Europe/Rome,airport,OurAirports
BLR,12.9522,77.6646,483,BLR,3131,Kempegowda International Airport,Bangalore,India,BLR,VOBL,13.1979,77.706299,3000,5.5,N,Asia/Calcutta,airport,OurAirports
BLT,-23.6,148.8167,484,BLT,6250,Blackwater Airport,Blackwater,Australia,BLT,YBTR,-23.603099822998047,148.8070068359375,657,10,O,Australia/Brisbane,airport,OurAirports
BLV,38.5452,-89.8352,485,BLV,3790,Scott AFB/Midamerica Airport,Belleville,United States,BLV,KBLV,38.5452,-89.835197,459,-6,A,America/Chicago,airport,OurAirports
BLZ,-15.6798,34.9676,486,BLZ,1013,Chileka International Airport,Blantyre,Malawi,BLZ,FWCL,-15.679100036621094,34.9739990234375,2555,2,U,Africa/Blantyre,airport,OurAirports
BMA,59.3544,17.9422,487,BMA,738,Stockholm-Bromma Airport,Stockholm,Sweden,BMA,ESSB,59.354400634765625,17.941699981689453,47,1,E,Europe/Stockholm,airport,OurAirports
BMC,41.5524,-112.0622,488,BMC,6999,Brigham City Regional Airport,Brigham City,United States,BMC,KBMC,41.552399,-112.061996,4229,-7,A,America/Denver,airport,OurAirports
BMD,-19.6867,44.5419,489,BMD,5617,Belo sur Tsiribihina Airport,Belo sur Tsiribihina,Madagascar,BMD,FMML,-19.6867008209,44.541900634799994,154,3,U,Indian/Antananarivo,airport,OurAirports
BME,-17.95,122.2317,490,BME,4319,Broome International Airport,Broome,Australia,BME,YBRM,-17.944700241088867,122.23200225830078,56,8,O,Australia/Perth,airport,OurAirports
BMI,40.4767,-88.9167,491,BMI,4037,Central Illinois Regional Airport at Bloomington-Normal,Bloomington,United States,BMI,KBMI,40.47710037,-88.91590118,871,-6,A,America/Chicago,airport,OurAirports
BMK,53.5955,6.7092,492,BMK,406,Borkum Airport,Borkum,Germany,BMK,EDWR,53.59639,6.709167,3,1,E,Europe/Berlin,airport,OurAirports
BMO,24.269,97.2462,493,BMO,6196,Banmaw Airport,Banmaw,Burma,BMO,VYBM,24.268999099731445,97.24620056152344,370,6.5,U,Asia/Rangoon,airport,OurAirports
BMU,-8.5408,118.6906,494,BMU,3924,Muhammad Salahuddin Airport,Bima,Indonesia,BMU,WADB,-8.5396499633789,118.68699645996,3,8,N,Asia/Makassar,airport,OurAirports
BMV,12.6661,108.1145,495,BMV,6187,Buon Ma Thuot Airport,Buonmethuot,Vietnam,BMV,VVBM,12.668299675,108.120002747,1729,7,U,Asia/Saigon,airport,OurAirports
BMW,21.375,0.9239,496,BMW,5554,Bordj Badji Mokhtar Airport,Bordj Badji Mokhtar,Algeria,BMW,DATM,21.375,0.923888981342,1303,1,N,Africa/Algiers,airport,OurAirports
BMY,-19.7206,163.6611,497,BMY,5920,Île Art - Waala Airport,Waala,New Caledonia,BMY,NWWC,-19.720600128173828,163.66099548339844,306,11,U,Pacific/Noumea,airport,OurAirports
BNA,36.1245,-86.6782,498,BNA,3690,Nashville International Airport,Nashville,United States,BNA,KBNA,36.1245002746582,-86.6781997680664,599,-6,A,America/Chicago,airport,OurAirports
BNB,-0.286,20.8840,499,BNB,11230,Boende Airport,Boende,Congo (Kinshasa),BNB,FZGN,-0.21699999272823334,20.850000381469727,1168,1,U,\N,airport,OurAirports
BNC,0.575,29.4739,500,BNC,11229,Beni Airport,Beni,Congo (Kinshasa),BNC,FZNP,0.575,29.4739,3517,1,U,\N,airport,OurAirports
BND,27.2186,56.3778,501,BND,2134,Bandar Abbas International Airport,Bandar Abbas,Iran,BND,OIKB,27.218299865722656,56.37779998779297,22,3.5,E,Asia/Tehran,airport,OurAirports
BNE,-27.3858,153.1183,502,BNE,3320,Brisbane International Airport,Brisbane,Australia,BNE,YBBN,-27.384199142456055,153.11700439453125,13,10,N,Australia/Brisbane,airport,OurAirports
BNI,6.2331,5.5992,503,BNI,262,Benin Airport,Benin,Nigeria,BNI,DNBE,6.316979885101318,5.5995001792907715,258,1,N,Africa/Lagos,airport,OurAirports
BNJ,50.7319,7.0967,504,BNJ,13183,Bonn-Hangelar Airport,Sankt-Augustin,Germany,BNJ,EDKB,50.7688903809,7.16333293915,197,1,E,\N,airport,OurAirports
BNK,-28.8333,153.5617,505,BNK,4291,Ballina Byron Gateway Airport,Ballina Byron Bay,Australia,BNK,YBNA,-28.8339004517,153.56199646,7,10,O,Australia/Sydney,airport,OurAirports
BNN,65.4611,12.2175,506,BNN,634,Brønnøysund Airport,Bronnoysund,Norway,BNN,ENBN,65.461097717285,12.217499732971,25,1,E,Europe/Oslo,airport,OurAirports
BNO,43.5919,-118.9554,507,BNO,8135,Burns Municipal Airport,Burns,United States,BNO,KBNO,43.5918998718,-118.955001831,4148,-8,A,America/Los_Angeles,airport,OurAirports
BNP,32.9667,70.5333,508,BNP,5938,Bannu Airport,Bannu,Pakistan,BNP,OPBN,32.9729,70.527901,1325,5,N,Asia/Karachi,airport,OurAirports
BNS,8.6167,-70.2167,509,BNS,2822,Barinas Airport,Barinas,Venezuela,BNS,SVBI,8.615,-70.21416667,615,-4,U,America/Caracas,airport,OurAirports
BNX,44.9417,17.3033,510,BNX,5794,Banja Luka International Airport,Banja Luka,Bosnia and Herzegovina,BNX,LQBK,44.94139862060547,17.297500610351562,400,1,E,Europe/Sarajevo,airport,OurAirports
BNY,-11.3022,159.7981,511,BNY,NA,NA,NA,NA,NA,NA,NA,NA,NA,NA,NA,NA,NA,NA
BOA,-5.854,13.0640,512,BOA,5646,Boma Airport,Boma,Congo (Kinshasa),BOA,FZAJ,-5.854000091552734,13.064000129699707,26,1,N,Africa/Kinshasa,airport,OurAirports
BOB,-16.4436,-151.7525,513,BOB,1989,Bora Bora Airport,Bora Bora,French Polynesia,BOB,NTTB,-16.444400787353516,-151.75100708007812,10,-10,U,Pacific/Tahiti,airport,OurAirports
BOC,9.3408,-82.2508,514,BOC,1865,Bocas Del Toro International Airport,Bocas Del Toro,Panama,BOC,MPBO,9.340849876403809,-82.25080108642578,10,-5,U,America/Panama,airport,OurAirports
BOD,44.8286,-0.7153,515,BOD,1264,Bordeaux-Mérignac Airport,Bordeaux,France,BOD,LFBD,44.828300476100004,-0.715556025505,162,1,E,Europe/Paris,airport,OurAirports
BOG,4.7031,-74.1383,516,BOG,2709,El Dorado International Airport,Bogota,Colombia,BOG,SKBO,4.70159,-74.1469,8361,-5,U,America/Bogota,airport,OurAirports
BOH,50.78,-1.8425,517,BOH,494,Bournemouth Airport,Bournemouth,United Kingdom,BOH,EGHH,50.779998779296875,-1.8424999713897705,38,0,E,Europe/London,airport,OurAirports
BOI,43.5644,-116.2228,518,BOI,3495,Boise Air Terminal/Gowen Field,Boise,United States,BOI,KBOI,43.5644,-116.223,2871,-7,A,America/Denver,airport,OurAirports
BOJ,42.5703,27.5153,519,BOJ,1191,Burgas Airport,Bourgas,Bulgaria,BOJ,LBBG,42.56959915161133,27.515199661254883,135,2,E,Europe/Sofia,airport,OurAirports
BOM,19.0908,72.8667,520,BOM,2997,Chhatrapati Shivaji International Airport,Mumbai,India,BOM,VABB,19.0886993408,72.8678970337,39,5.5,N,Asia/Calcutta,airport,OurAirports
BON,12.1311,-68.2769,521,BON,2896,Flamingo International Airport,Kralendijk,Netherlands Antilles,BON,TNCB,12.130999565124512,-68.26850128173828,20,-4,U,America/Curacao,airport,OurAirports
BOO,67.2692,14.3653,522,BOO,635,Bodø Airport,Bodo,Norway,BOO,ENBO,67.26920318603516,14.365300178527832,42,1,E,Europe/Oslo,airport,OurAirports
BOP,5.9667,15.6333,523,BOP,NA,NA,NA,NA,NA,NA,NA,NA,NA,NA,NA,NA,NA,NA
BOS,42.3643,-71.0052,524,BOS,3448,General Edward Lawrence Logan International Airport,Boston,United States,BOS,KBOS,42.36429977,-71.00520325,20,-5,A,America/New_York,airport,OurAirports
BOT,-7.233,141.0830,525,BOT,NA,NA,NA,NA,NA,NA,NA,NA,NA,NA,NA,NA,NA,NA
BOU,47.0644,2.3789,526,BOU,1331,Bourges Airport,Bourges,France,BOU,LFLD,47.058101654052734,2.3702800273895264,529,1,E,Europe/Paris,airport,OurAirports
BOX,-16.0753,136.3022,527,BOX,10618,Borroloola Airport,Borroloola,Australia,BOX,YBRL,-16.075300216674805,136.302001953125,55,9.5,O,\N,airport,OurAirports
BOY,11.1675,-4.3211,528,BOY,247,Bobo Dioulasso Airport,Bobo-dioulasso,Burkina Faso,BOY,DFOO,11.160099983215332,-4.33096981048584,1511,0,N,Africa/Ouagadougou,airport,OurAirports
BPE,21.1812,94.9287,529,BPE,4272,Qinhuangdao Beidaihe Airport,Bagan,Burma,BPE,ZBDH,39.666389,119.058889,46,8,U,Asia/Shanghai,airport,OurAirports
BPF,-8.583,158.1170,530,BPF,7620,Batuna Aerodrome,Batuna,Solomon Islands,BPF,AGBT,-8.56202777778,158.119305556,24,11,U,Pacific/Guadalcanal,airport,OurAirports
BPG,-15.8603,-52.3889,531,BPG,2534,Barra do Garças Airport,Barra Do Garcas,Brazil,BPG,SBBW,-15.861300468400001,-52.3889007568,1147,-4,S,America/Campo_Grande,airport,OurAirports
BPH,8.1885,126.3270,532,BPH,11927,Bislig Airport,NA,Philippines,BPH,RPMF,8.19594955444336,126.3219985961914,12,NA,\N,\N,airport,OurAirports
BPI,42.5851,-110.1112,533,BPI,11820,Miley Memorial Field,Big Piney,United States,BPI,KBPI,42.58509827,-110.1110001,6990,NA,\N,\N,airport,OurAirports
BPL,44.9038,82.0708,534,BPL,11498,Alashankou Bole (Bortala) airport,Bole,China,BPL,ZWAX,44.895,82.3,1253,8,N,\N,airport,OurAirports
BPM,34.9463,69.2650,535,BPM,3141,Begumpet Airport,Hyderabad,India,BPM,VOHY,17.4531002045,78.4675979614,1742,5.5,N,Asia/Calcutta,airport,OurAirports
BPN,-1.2672,116.8939,536,BPN,3919,Sultan Aji Muhamad Sulaiman Airport,Balikpapan,Indonesia,BPN,WALL,-1.26827001572,116.893997192,12,8,N,Asia/Makassar,airport,OurAirports
BPS,-16.4381,-39.0733,537,BPS,4209,Porto Seguro Airport,Porto Seguro,Brazil,BPS,SBPS,-16.438601,-39.080898,168,-3,S,America/Fortaleza,airport,OurAirports
BPT,29.9508,-94.0207,538,BPT,3612,Southeast Texas Regional Airport,Beaumont,United States,BPT,KBPT,29.9507999420166,-94.02069854736328,15,-6,A,America/Chicago,airport,OurAirports
BPX,30.5536,97.1083,539,BPX,6396,Qamdo Bangda Airport,Bangda,China,BPX,ZUBD,30.553600311279297,97.1082992553711,14219,8,U,Asia/Shanghai,airport,OurAirports
BPY,-16.7419,44.4814,540,BPY,931,Besalampy Airport,Besalampy,Madagascar,BPY,FMNQ,-16.744530296500002,44.4824838638,125,3,U,Indian/Antananarivo,airport,OurAirports
BQA,15.7331,121.5022,541,BQA,2415,Dr.Juan C. Angara Airport,Baler,Philippines,BQA,RPUR,15.729309,121.500034,108,8,N,Asia/Manila,airport,OurAirports
BQB,-33.6867,115.4000,542,BQB,9090,Busselton Regional Airport,Brusselton,Australia,BQB,YBLN,-33.6884231567,115.40159606899999,55,8,O,Australia/Perth,airport,OurAirports
BQH,51.3308,0.0325,543,BQH,501,London Biggin Hill Airport,Biggin Hill,United Kingdom,BQH,EGKB,51.33079910279999,0.0324999988079,598,0,E,Europe/London,airport,OurAirports
BQK,31.2588,-81.4665,544,BQK,5725,Brunswick Golden Isles Airport,Brunswick,United States,BQK,KBQK,31.258800506591797,-81.46649932861328,26,-5,A,America/New_York,airport,OurAirports
BQL,-22.9133,139.9000,545,BQL,6248,Boulia Airport,Boulia,Australia,BQL,YBOU,-22.913299560546875,139.89999389648438,542,10,O,Australia/Brisbane,airport,OurAirports
BQN,18.4948,-67.1295,546,BQN,2885,Rafael Hernandez Airport,Aguadilla,Puerto Rico,BQN,TJBQ,18.49489974975586,-67.12940216064453,237,-4,U,America/Puerto_Rico,airport,OurAirports
BQQ,-22.4831,-48.5239,547,BQQ,NA,NA,NA,NA,NA,NA,NA,NA,NA,NA,NA,NA,NA,NA
BQS,50.425,127.4117,548,BQS,2926,Ignatyevo Airport,Blagoveschensk,Russia,BQS,UHBB,50.42539978027344,127.41200256347656,638,9,N,Asia/Yakutsk,airport,OurAirports
BQT,52.1083,23.8981,549,BQT,6908,Brest Airport,Brest,Belarus,BQT,UMBB,52.108299,23.8981,468,3,E,Europe/Minsk,airport,OurAirports
BRA,-12.0794,-45.0094,550,BRA,7373,Barreiras Airport,Barreiras,Brazil,BRA,SNBR,-12.078900337219238,-45.00899887084961,2447,-3,S,America/Fortaleza,airport,OurAirports
BRB,-2.7958,-57.0556,551,BRB,NA,NA,NA,NA,NA,NA,NA,NA,NA,NA,NA,NA,NA,NA
BRC,-41.1511,-71.1578,552,BRC,2513,San Carlos De Bariloche Airport,San Carlos De Bariloche,Argentina,BRC,SAZS,-41.151199,-71.157501,2774,-3,N,America/Argentina/Salta,airport,OurAirports
BRD,46.3983,-94.1381,553,BRD,6957,Brainerd Lakes Regional Airport,Brainerd,United States,BRD,KBRD,46.39830017,-94.13809967,1232,-6,U,America/Chicago,airport,OurAirports
BRE,53.0474,8.7867,554,BRE,353,Bremen Airport,Bremen,Germany,BRE,EDDW,53.0475006104,8.78666973114,14,1,E,Europe/Berlin,airport,OurAirports
BRI,41.1392,16.7658,555,BRI,1501,Bari Karol Wojtyła Airport,Bari,Italy,BRI,LIBD,41.138901,16.760599,177,1,E,Europe/Rome,airport,OurAirports
BRK,-30.0403,145.9528,556,BRK,6244,Bourke Airport,Bourke,Australia,BRK,YBKE,-30.039199829101562,145.95199584960938,352,10,O,Australia/Sydney,airport,OurAirports
BRL,40.7832,-91.1255,557,BRL,5726,Southeast Iowa Regional Airport,Burlington,United States,BRL,KBRL,40.783199310302734,-91.12550354003906,698,-6,A,America/Chicago,airport,OurAirports
BRM,10.0456,-69.3564,558,BRM,2824,Barquisimeto International Airport,Barquisimeto,Venezuela,BRM,SVBM,10.042746543884277,-69.3586196899414,2042,-4,U,America/Caracas,airport,OurAirports
BRN,46.9122,7.4992,559,BRN,1676,Bern Belp Airport,Bern,Switzerland,BRN,LSZB,46.914100647,7.497149944309999,1674,1,E,Europe/Zurich,airport,OurAirports
BRO,25.9068,-97.4259,560,BRO,3738,Brownsville South Padre Island International Airport,Brownsville,United States,BRO,KBRO,25.90679931640625,-97.4259033203125,22,-6,A,America/Chicago,airport,OurAirports
BRQ,49.1514,16.6939,561,BRQ,1588,Brno-Tuřany Airport,Brno,Czech Republic,BRQ,LKTB,49.15129852294922,16.694400787353516,778,1,E,Europe/Prague,airport,OurAirports
BRR,57.017,-7.4330,562,BRR,5575,Barra Airport,Barra,United Kingdom,BRR,EGPR,57.0228,-7.44306,5,0,E,Europe/London,airport,OurAirports
BRS,51.3827,-2.7191,563,BRS,490,Bristol Airport,Bristol,United Kingdom,BRS,EGGD,51.382702,-2.71909,622,0,E,Europe/London,airport,OurAirports
BRT,-11.7664,130.6167,564,BRT,7571,Bathurst Island Airport,Bathurst Island,Australia,BRT,YBTI,-11.769200325012207,130.6199951171875,67,9.5,U,Australia/Darwin,airport,OurAirports
BRU,50.9014,4.4844,565,BRU,302,Brussels Airport,Brussels,Belgium,BRU,EBBR,50.901401519800004,4.48443984985,184,1,E,Europe/Brussels,airport,OurAirports
BRV,53.5071,8.5729,566,BRV,402,Bremerhaven Airport,Bremerhaven,Germany,BRV,EDWB,53.506943,8.572778,10,1,E,Europe/Berlin,airport,OurAirports
BRW,71.2854,-156.7660,567,BRW,3571,Wiley Post Will Rogers Memorial Airport,Barrow,United States,BRW,PABR,71.285402,-156.766008,44,-9,A,America/Anchorage,airport,OurAirports
BRX,18.2517,-71.1219,568,BRX,1757,Maria Montez International Airport,Barahona,Dominican Republic,BRX,MDBH,18.25149917602539,-71.12039947509766,10,-4,U,America/Santo_Domingo,airport,OurAirports
BSA,11.2753,49.1494,569,BSA,5686,Bosaso Airport,Bosaso,Somalia,BSA,HCMF,11.275300025939941,49.14939880371094,3,3,U,Africa/Mogadishu,airport,OurAirports
BSB,-15.8692,-47.9208,570,BSB,2531,Presidente Juscelino Kubistschek International Airport,Brasilia,Brazil,BSB,SBBR,-15.86916732788086,-47.920833587646484,3497,-3,S,America/Sao_Paulo,airport,OurAirports
BSC,6.2031,-77.3947,571,BSC,2711,José Celestino Mutis Airport,Bahia Solano,Colombia,BSC,SKBS,6.20292,-77.3947,80,-5,U,America/Bogota,airport,OurAirports
BSD,25.15,99.1500,572,BSD,7505,Baoshan Yunduan Airport,Baoshan,China,BSD,ZPBS,25.053301,99.168297,5453,8,U,Asia/Shanghai,airport,OurAirports
BSG,1.9022,9.8028,573,BSG,890,Bata Airport,Bata,Equatorial Guinea,BSG,FGBT,1.9054700136184692,9.805680274963379,13,1,N,Africa/Malabo,airport,OurAirports
BSJ,-37.8883,147.5683,574,BSJ,9402,Bairnsdale Airport,Bairnsdale,Australia,BSJ,YBNS,-37.88750076293945,147.5679931640625,165,10,O,Australia/Hobart,airport,OurAirports
BSK,34.7933,5.7382,575,BSK,235,Biskra Airport,Biskra,Algeria,BSK,DAUB,34.793300628699996,5.73823022842,289,1,N,Africa/Algiers,airport,OurAirports
BSL,47.59,7.5292,576,BSL,1423,EuroAirport Basel-Mulhouse-Freiburg Airport,Mulhouse,France,BSL,LFSB,47.59,7.5291667,885,1,E,Europe/Paris,airport,OurAirports
BSO,20.4522,121.9772,577,BSO,6019,Basco Airport,Basco,Philippines,BSO,RPUO,20.4513,121.980003,291,8,N,\N,airport,OurAirports
BSR,30.5491,47.6621,578,BSR,2234,Basrah International Airport,Basrah,Iraq,BSR,ORMM,30.549100875854492,47.66210174560547,11,3,U,Asia/Baghdad,airport,OurAirports
BSS,-7.525,-46.0528,579,BSS,NA,NA,NA,NA,NA,NA,NA,NA,NA,NA,NA,NA,NA,NA
BST,31.559,64.3641,580,BST,8773,Bost Airport,Lashkar Gah,Afghanistan,BST,OABT,31.55970001220703,64.36499786376953,2464,4.5,U,Asia/Kabul,airport,OurAirports
BSX,16.8152,94.7799,581,BSX,6201,Pathein Airport,Pathein,Burma,BSX,VYPN,16.815201,94.7799,20,6.5,U,Asia/Rangoon,airport,OurAirports
BSZ,58.2336,-157.3503,582,BSZ,NA,NA,NA,NA,NA,NA,NA,NA,NA,NA,NA,NA,NA,NA
BTC,7.7033,81.6783,583,BTC,3026,Batticaloa Airport,Batticaloa,Sri Lanka,BTC,VCCB,7.70576,81.678802,20,5.5,U,Asia/Colombo,airport,OurAirports
BTH,1.1189,104.1142,584,BTH,3903,Hang Nadim International Airport,Batam,Indonesia,BTH,WIDD,1.12102997303,104.119003296,126,7,N,Asia/Jakarta,airport,OurAirports
BTI,70.134,-143.5819,585,BTI,3411,Barter Island LRRS Airport,Barter Island,United States,BTI,PABA,70.1340026855,-143.582000732,2,-9,A,America/Anchorage,airport,OurAirports
BTJ,5.5169,95.4200,586,BTJ,3294,Sultan Iskandar Muda International Airport,Banda Aceh,Indonesia,BTJ,WITT,5.522872024010001,95.42063713070002,65,7,N,Asia/Jakarta,airport,OurAirports
BTK,56.37,101.6983,587,BTK,2936,Bratsk Airport,Bratsk,Russia,BTK,UIBB,56.370601654052734,101.697998046875,1610,8,N,Asia/Irkutsk,airport,OurAirports
BTL,42.3075,-85.2517,588,BTL,11822,W K Kellogg Airport,Battle Creek,United States,BTL,KBTL,42.307300567599995,-85.2515029907,952,NA,\N,\N,airport,OurAirports
BTM,45.9548,-112.4975,589,BTM,4022,Bert Mooney Airport,Butte,United States,BTM,KBTM,45.95479965209961,-112.49700164794922,5550,-7,A,America/Denver,airport,OurAirports
BTR,30.5331,-91.1496,590,BTR,3846,Baton Rouge Metropolitan Airport,Baton Rouge,United States,BTR,KBTR,30.533199,-91.149597,70,-6,A,America/Chicago,airport,OurAirports
BTS,48.17,17.2128,591,BTS,1745,M. R. Štefánik Airport,Bratislava,Slovakia,BTS,LZIB,48.17020034790039,17.21269989013672,436,1,E,Europe/Bratislava,airport,OurAirports
BTT,66.9139,-151.5290,592,BTT,3417,Bettles Airport,Bettles,United States,BTT,PABT,66.91390228,-151.529007,647,-9,A,America/Anchorage,airport,OurAirports
BTU,3.1241,113.0197,593,BTU,3262,Bintulu Airport,Bintulu,Malaysia,BTU,WBGB,3.12385010719,113.019996643,74,8,N,Asia/Kuala_Lumpur,airport,OurAirports
BTV,44.4718,-73.1532,594,BTV,3711,Burlington International Airport,Burlington,United States,BTV,KBTV,44.471900939899996,-73.15329742429999,335,-5,A,America/New_York,airport,OurAirports
BTZ,40.2489,29.5494,595,BTZ,9395,Bursa Airport,Bursa,Turkey,BTZ,LTBE,40.233299255371094,29.009199142456055,331,3,U,Europe/Istanbul,airport,OurAirports
BUA,-5.4223,154.6727,596,BUA,5419,Buka Airport,Buka Island,Papua New Guinea,BUA,AYBK,-5.4223198890686035,154.67300415039062,11,10,U,Pacific/Port_Moresby,airport,OurAirports
BUC,-17.7483,139.5350,597,BUC,6245,Burketown Airport,Burketown,Australia,BUC,YBKT,-17.748600006103516,139.53399658203125,21,10,O,Australia/Brisbane,airport,OurAirports
BUD,47.4393,19.2618,598,BUD,1489,Budapest Liszt Ferenc International Airport,Budapest,Hungary,BUD,LHBP,47.42976,19.261093,495,1,E,Europe/Budapest,airport,OurAirports
BUF,42.9405,-78.7322,599,BUF,3820,Buffalo Niagara International Airport,Buffalo,United States,BUF,KBUF,42.94049835,-78.73220062,728,-5,A,America/New_York,airport,OurAirports
BUG,-12.6099,13.4037,600,BUG,945,Benguela Airport,Benguela,Angola,BUG,FNBG,-12.609000206,13.4036998749,118,1,N,Africa/Luanda,airport,OurAirports
BUJ,35.3314,4.2044,601,BUJ,208,Bou Saada Airport,Bou Saada,Algeria,BUJ,DAAD,35.33250045776367,4.206389904022217,1506,1,N,Africa/Algiers,airport,OurAirports
BUL,-7.217,146.6330,602,BUL,12946,Bulolo Airport,Bulolo,Papua New Guinea,BUL,AYBU,-7.216286671410001,146.649541855,2240,10,N,\N,airport,OurAirports
BUN,3.8197,-76.9897,603,BUN,2712,Gerardo Tobar López Airport,Buenaventura,Colombia,BUN,SKBU,3.81963,-76.9898,48,-5,U,America/Bogota,airport,OurAirports
BUO,9.517,45.5670,604,BUO,5689,Burao Airport,Burao,Somalia,BUO,HCMV,9.5275,45.5549,3400,3,U,Africa/Mogadishu,airport,OurAirports
BUQ,-20.0183,28.6247,605,BUQ,1001,Joshua Mqabuko Nkomo International Airport,Bulawayo,Zimbabwe,BUQ,FVBU,-20.017401,28.617901,4359,2,U,Africa/Harare,airport,OurAirports
BUR,34.2006,-118.3587,606,BUR,3644,Bob Hope Airport,Burbank,United States,BUR,KBUR,34.20069885253906,-118.35900115966797,778,-8,A,America/Los_Angeles,airport,OurAirports
BUS,41.61,41.5997,607,BUS,3971,Batumi International Airport,Batumi,Georgia,BUS,UGSB,41.6102981567,41.5997009277,105,4,N,Asia/Tbilisi,airport,OurAirports
BUW,-5.4869,122.5690,608,BUW,9887,Betoambari Airport,Bau-Bau,Indonesia,BUW,WAWB,-5.486879825592041,122.56900024414062,164,8,N,\N,airport,OurAirports
BUX,1.5658,30.2206,609,BUX,1033,Bunia Airport,Bunia,Congo (Kinshasa),BUX,FZKA,1.5657199621200562,30.220800399780273,4045,2,U,Africa/Lubumbashi,airport,OurAirports
BUY,-33.3783,115.6767,610,BUY,10116,Bunbury Airport,Bunbury,Australia,BUY,YBUN,-33.378299713134766,115.677001953125,53,8,U,\N,airport,OurAirports
BUZ,28.9494,50.8303,611,BUZ,2106,Bushehr Airport,Bushehr,Iran,BUZ,OIBB,28.9447994232,50.8345985413,68,3.5,E,Asia/Tehran,airport,OurAirports
BVA,49.4544,2.1128,612,BVA,1367,Paris Beauvais Tillé Airport,Beauvais,France,BVA,LFOB,49.45439910888672,2.1127800941467285,359,1,E,Europe/Paris,airport,OurAirports
BVB,2.8414,-60.6922,613,BVB,2533,Atlas Brasil Cantanhede Airport,Boa Vista,Brazil,BVB,SBBV,2.84138894081,-60.6922225952,276,-4,S,America/Boa_Vista,airport,OurAirports
BVC,16.1364,-22.8886,614,BVC,1103,Rabil Airport,Boa Vista,Cape Verde,BVC,GVBA,16.136499404907227,-22.888900756835938,69,-1,U,Atlantic/Cape_Verde,airport,OurAirports
BVE,45.1494,1.4744,615,BVE,1278,Brive Souillac Airport,Brive,France,BVE,LFSL,45.039722,1.485556,1016,1,E,Europe/Paris,airport,OurAirports
BVG,70.8714,29.0342,616,BVG,4350,Berlevåg Airport,Berlevag,Norway,BVG,ENBV,70.871399,29.034201,42,1,E,Europe/Oslo,airport,OurAirports
BVH,-12.7014,-60.0931,617,BVH,2637,Brigadeiro Camarão Airport,Vilhena,Brazil,BVH,SBVH,-12.694399833679,-60.098300933838,2018,-4,S,America/Boa_Vista,airport,OurAirports
BVI,-25.8989,139.3486,618,BVI,6240,Birdsville Airport,Birdsville,Australia,BVI,YBDV,-25.897499084472656,139.34800720214844,159,10,O,Australia/Brisbane,airport,OurAirports
BVM,-15.8708,-38.8719,619,BVM,NA,NA,NA,NA,NA,NA,NA,NA,NA,NA,NA,NA,NA,NA
BVS,-1.6383,-50.4408,620,BVS,7370,Breves Airport,Breves,Brazil,BVS,SNVS,-1.6365300416946411,-50.443599700927734,98,-3,S,America/Belem,airport,OurAirports
BVV,44.92,147.6217,621,BVV,NA,NA,NA,NA,NA,NA,NA,NA,NA,NA,NA,NA,NA,NA
BVY,42.5842,-70.9165,622,BVY,8658,Beverly Municipal Airport,Beverly,United States,BVY,KBVY,42.584201812699995,-70.91649627689999,107,-5,A,America/New_York,airport,OurAirports
BWA,27.5073,83.4179,623,BWA,3122,Gautam Buddha Airport,Bhairawa,Nepal,BWA,VNBW,27.505685,83.416293,358,5.75,N,Asia/Katmandu,airport,OurAirports
BWB,-20.8658,115.4047,624,BWB,7566,Barrow Island Airport,Barrow Island,Australia,BWB,YBWX,-20.86440086364746,115.40599822998047,26,8,U,Australia/Perth,airport,OurAirports
BWE,52.3192,10.5561,625,BWE,399,Braunschweig-Wolfsburg Airport,Braunschweig,Germany,BWE,EDVE,52.319199,10.5561,295,1,E,Europe/Berlin,airport,OurAirports
BWG,36.9645,-86.4197,626,BWG,7848,Bowling Green Warren County Regional Airport,Bowling Green,United States,BWG,KBWG,36.964500427199994,-86.41970062259999,547,-6,A,America/Chicago,airport,OurAirports
BWH,5.4661,100.3911,627,BWH,3297,Butterworth Airport,Butterworth,Malaysia,BWH,WMKB,5.4659199714660645,100.39099884033203,11,8,N,Asia/Kuala_Lumpur,airport,OurAirports
BWI,39.1754,-76.6683,628,BWI,3849,Baltimore/Washington International Thurgood Marshall Airport,Baltimore,United States,BWI,KBWI,39.1754,-76.668297,146,-5,A,America/New_York,airport,OurAirports
BWK,43.2857,16.6797,629,BWK,4160,Bol Airport,Brac,Croatia,BWK,LDSB,43.285701751708984,16.67970085144043,1776,1,E,Europe/Zagreb,airport,OurAirports
BWN,4.9442,114.9284,630,BWN,3272,Brunei International Airport,Bandar Seri Begawan,Brunei,BWN,WBSB,4.944200038909912,114.9280014038086,73,8,U,Asia/Brunei,airport,OurAirports
BWO,51.8617,47.7500,631,BWO,6167,Balakovo Airport,Balakovo,Russia,BWO,UWSB,51.8582992554,47.7456016541,95,3,N,Europe/Moscow,airport,OurAirports
BWQ,-29.9756,146.8156,632,BWQ,12015,Brewarrina Airport,NA,Australia,BWQ,YBRW,-29.973899841308594,146.81700134277344,414,NA,\N,\N,airport,OurAirports
BWT,-41.0003,145.7300,633,BWT,6338,Wynyard Airport,Burnie,Australia,BWT,YWYY,-40.9989013671875,145.7310028076172,62,10,O,Australia/Melbourne,airport,OurAirports
BWU,-33.9244,150.9900,634,BWU,3354,Sydney Bankstown Airport,Sydney,Australia,BWU,YSBK,-33.924400329589844,150.98800659179688,29,10,O,Australia/Sydney,airport,OurAirports
BWW,22.62,-79.1400,635,BWW,10171,Las Brujas Airport,Cayo Santa Maria,Cuba,BWW,MUBR,22.621299743699996,-79.1472015381,13,-5,A,\N,airport,OurAirports
BXB,-2.5322,133.4389,636,BXB,3259,Babo Airport,Babo,Indonesia,BXB,WASO,-2.5322399139404297,133.43899536132812,10,9,N,Asia/Jayapura,airport,OurAirports
BXE,14.8667,-12.4833,637,BXE,1086,Bakel Airport,Bakel,Senegal,BXE,GOTB,14.847299575805664,-12.468299865722656,98,0,N,Africa/Dakar,airport,OurAirports
BXH,46.8933,75.0050,638,BXH,2909,Balkhash Airport,Balkhash,Kazakhstan,BXH,UAAH,46.8932991027832,75.00499725341797,1446,6,U,Asia/Qyzylorda,airport,OurAirports
BXR,29.0842,58.4497,639,BXR,5928,Bam Airport,Bam,Iran,BXR,OIKM,29.084199905395508,58.45000076293945,3231,3.5,E,Asia/Tehran,airport,OurAirports
BXU,8.9586,125.4917,640,BXU,4200,Bancasi Airport,Butuan,Philippines,BXU,RPME,8.9515,125.4788,141,8,N,Asia/Manila,airport,OurAirports
BYC,-21.9494,-63.6481,641,BYC,2772,Yacuiba Airport,Yacuiba,Bolivia,BYC,SLYA,-21.960899353027344,-63.65169906616211,2112,-4,U,America/La_Paz,airport,OurAirports
BYF,49.97,2.6928,642,BYF,1258,Albert-Bray Airport,Albert,France,BYF,LFAQ,49.9715003967,2.69765996933,364,1,E,Europe/Paris,airport,OurAirports
BYH,35.9643,-89.9440,643,BYH,3523,Arkansas International Airport,Blytheville,United States,BYH,KBYH,35.9642982483,-89.94400024410001,254,-6,A,America/Chicago,airport,OurAirports
BYI,42.5433,-113.7717,644,BYI,11823,Burley Municipal Airport,Burley,United States,BYI,KBYI,42.542598724399994,-113.772003174,4150,NA,\N,\N,airport,OurAirports
BYK,7.7525,-5.0678,645,BYK,254,Bouaké Airport,Bouake,Cote d'Ivoire,BYK,DIBK,7.738800048828125,-5.073669910430908,1230,0,N,Africa/Abidjan,airport,OurAirports
BYM,20.3972,-76.6175,646,BYM,1899,Carlos Manuel de Cespedes Airport,Bayamo,Cuba,BYM,MUBY,20.396400451660156,-76.62139892578125,203,-5,U,America/Havana,airport,OurAirports
BYN,46.1633,100.7041,647,BYN,6371,Bayankhongor Airport,Bayankhongor,Mongolia,BYN,ZMBH,46.163299560546875,100.7040023803711,6085,8,U,Asia/Ulaanbaatar,airport,OurAirports
BYO,-21.2294,-56.4561,648,BYO,8242,Bonito Airport,Bointo,Brazil,BYO,SJDB,-21.247299,-56.452499,1180,-4,S,America/Campo_Grande,airport,OurAirports
BYR,57.2772,11.0001,649,BYR,613,Læsø Airport,Laeso,Denmark,BYR,EKLS,57.277198791503906,11.000100135803223,25,1,E,Europe/Copenhagen,airport,OurAirports
49.9844,11.6386,BAYREUTH,650,49.9844,NA,NA,NA,NA,NA,NA,NA,NA,NA,NA,NA,NA,NA,NA
BZB,-18.7167,36.3333,651,BZB,NA,NA,NA,NA,NA,NA,NA,NA,NA,NA,NA,NA,NA,NA
BZC,-22.7656,-41.9650,652,BZC,11176,Umberto Modiano Airport,Buzios,Brazil,BZC,SBBZ,-22.770999908447266,-41.96289825439453,10,-3,S,\N,airport,OurAirports
BZD,-34.625,143.5769,653,BZD,12014,Balranald Airport,NA,Australia,BZD,YBRN,-34.623600006103516,143.5780029296875,210,NA,\N,\N,airport,OurAirports
BZE,17.5361,-88.3083,654,BZE,1957,Philip S. W. Goldson International Airport,Belize City,Belize,BZE,MZBZ,17.539100646972656,-88.308197021484375,15,-6,U,America/Belize,airport,OurAirports
BZG,53.0968,17.9777,655,BZG,5591,Bydgoszcz Ignacy Jan Paderewski Airport,Bydgoszcz,Poland,BZG,EPBY,53.096801757799994,17.9776992798,235,1,E,Europe/Warsaw,airport,OurAirports
BZI,39.6156,27.9328,656,BZI,1702,Balıkesir Merkez Airport,Balikesir,Turkey,BZI,LTBF,39.619300842285156,27.926000595092773,340,3,E,Europe/Istanbul,airport,OurAirports
BZK,53.2133,34.1783,657,BZK,2984,Bryansk Airport,Bryansk,Russia,BZK,UUBP,53.214199,34.176399,663,3,N,Europe/Moscow,airport,OurAirports
